{"result":"success","data":[{"route_id":"017","stop_id":"SA113ME","trip_id":"52_815456","time":"09:30:00","stop_name":"PARCO ARBOSTELLA","stop_lon":"14.8138288411393","stop_lat":"40.6524161935838"},{"route_id":"017","stop_id":"SA062ME","trip_id":"52_815456","time":"09:32:00","stop_name":"PARMENIDE  ARBOSTELLA","stop_lon":"14.8113278577366","stop_lat":"40.6547038900508"},{"route_id":"017","stop_id":"SA068ME","trip_id":"52_815456","time":"09:35:55","stop_name":"TRENTO","stop_lon":"14.8003667551266","stop_lat":"40.6593513960182"},{"route_id":"017","stop_id":"SA074PA","trip_id":"52_815456","time":"09:37:41","stop_name":"DELLA LIBERTA","stop_lon":"14.7969521160175","stop_lat":"40.662900180648"},{"route_id":"017","stop_id":"SA078PA","trip_id":"52_815456","time":"09:38:54","stop_name":"POSIDONIA 309","stop_lon":"14.7940586399325","stop_lat":"40.6649760096238"},{"route_id":"017","stop_id":"SA084TO","trip_id":"52_815456","time":"09:41:00","stop_name":"POSIDONIA  SANTELMO","stop_lon":"14.7885373404976","stop_lat":"40.6681933077779"},{"route_id":"017","stop_id":"SA092TO","trip_id":"52_815456","time":"09:43:56","stop_name":"POSIDONIA OROFINO","stop_lon":"14.7832078401966","stop_lat":"40.6710237873859"},{"route_id":"017","stop_id":"SA094TO","trip_id":"52_815456","time":"09:45:08","stop_name":"TORRIONE FORTE LA CARNALE","stop_lon":"14.7808333463748","stop_lat":"40.6719093388098"},{"route_id":"017","stop_id":"SA098TO","trip_id":"52_815456","time":"09:46:00","stop_name":"TORRIONE MOBILIO","stop_lon":"14.7789949020983","stop_lat":"40.6723720776974"},{"route_id":"017","stop_id":"SA001FE","trip_id":"52_815456","time":"09:49:00","stop_name":"SALERNO STAZIONE","stop_lon":"14.7717522173689","stop_lat":"40.6751631588003"},{"route_id":"017","stop_id":"SA003FE","trip_id":"52_815456","time":"09:50:19","stop_name":"GARIBALDI ACI","stop_lon":"14.7704812533735","stop_lat":"40.6748434418069"},{"route_id":"017","stop_id":"SA005FE","trip_id":"52_815456","time":"09:52:46","stop_name":"GARIBALDI TRIBUNALE","stop_lon":"14.767212476925","stop_lat":"40.6757679696663"},{"route_id":"017","stop_id":"SA331CA","trip_id":"52_815456","time":"09:56:00","stop_name":"XXIV MAGGIO  (in salita)","stop_lon":"14.7660028244881","stop_lat":"40.678092453116"},{"route_id":"017","stop_id":"SA346CA","trip_id":"52_815456","time":"09:57:56","stop_name":"CASALBORE STADIO VESTUTI","stop_lon":"14.7700039168472","stop_lat":"40.6796711126306"},{"route_id":"017","stop_id":"SA335CA","trip_id":"52_815456","time":"09:59:00","stop_name":"S. FRANCESCO","stop_lon":"14.7678286744095","stop_lat":"40.6804567981381"},{"route_id":"017","stop_id":"SA345CA","trip_id":"52_815456","time":"09:59:59","stop_name":"CAVALIERO","stop_lon":"14.766149906058","stop_lat":"40.6834077232487"},{"route_id":"017","stop_id":"FI025UN","trip_id":"52_815456","time":"10:26:00","stop_name":"PARCHEGGIO MULTIPIANO","stop_lon":"14.7927346613151","stop_lat":"40.7671488782853"},{"route_id":"017","stop_id":"FI027UN","trip_id":"52_815456","time":"10:27:29","stop_name":"RESIDENZE UNIVERSITARIE","stop_lon":"14.7953694191567","stop_lat":"40.7722752440895"},{"route_id":"017","stop_id":"FI031UN","trip_id":"52_815456","time":"10:27:49","stop_name":"UNIVERSITA' FISCIANO DON MELILLO","stop_lon":"14.7945331436947","stop_lat":"40.7735290628463"},{"route_id":"017","stop_id":"FI007UN","trip_id":"52_815456","time":"10:28:00","stop_name":"FISCIANO UNIVERSITA","stop_lon":"14.7940717591478","stop_lat":"40.7736710217681"},{"route_id":"017","stop_id":"SA113ME","trip_id":"52_815457","time":"10:30:00","stop_name":"PARCO ARBOSTELLA","stop_lon":"14.8138288411393","stop_lat":"40.6524161935838"},{"route_id":"017","stop_id":"SA062ME","trip_id":"52_815457","time":"10:32:00","stop_name":"PARMENIDE  ARBOSTELLA","stop_lon":"14.8113278577366","stop_lat":"40.6547038900508"},{"route_id":"017","stop_id":"SA068ME","trip_id":"52_815457","time":"10:35:55","stop_name":"TRENTO","stop_lon":"14.8003667551266","stop_lat":"40.6593513960182"},{"route_id":"017","stop_id":"SA074PA","trip_id":"52_815457","time":"10:37:41","stop_name":"DELLA LIBERTA","stop_lon":"14.7969521160175","stop_lat":"40.662900180648"},{"route_id":"017","stop_id":"SA078PA","trip_id":"52_815457","time":"10:38:54","stop_name":"POSIDONIA 309","stop_lon":"14.7940586399325","stop_lat":"40.6649760096238"},{"route_id":"017","stop_id":"SA084TO","trip_id":"52_815457","time":"10:41:00","stop_name":"POSIDONIA  SANTELMO","stop_lon":"14.7885373404976","stop_lat":"40.6681933077779"},{"route_id":"017","stop_id":"SA092TO","trip_id":"52_815457","time":"10:43:56","stop_name":"POSIDONIA OROFINO","stop_lon":"14.7832078401966","stop_lat":"40.6710237873859"},{"route_id":"017","stop_id":"SA094TO","trip_id":"52_815457","time":"10:45:08","stop_name":"TORRIONE FORTE LA CARNALE","stop_lon":"14.7808333463748","stop_lat":"40.6719093388098"},{"route_id":"017","stop_id":"SA098TO","trip_id":"52_815457","time":"10:46:00","stop_name":"TORRIONE MOBILIO","stop_lon":"14.7789949020983","stop_lat":"40.6723720776974"},{"route_id":"017","stop_id":"SA001FE","trip_id":"52_815457","time":"10:49:00","stop_name":"SALERNO STAZIONE","stop_lon":"14.7717522173689","stop_lat":"40.6751631588003"},{"route_id":"017","stop_id":"SA003FE","trip_id":"52_815457","time":"10:50:19","stop_name":"GARIBALDI ACI","stop_lon":"14.7704812533735","stop_lat":"40.6748434418069"},{"route_id":"017","stop_id":"SA005FE","trip_id":"52_815457","time":"10:52:46","stop_name":"GARIBALDI TRIBUNALE","stop_lon":"14.767212476925","stop_lat":"40.6757679696663"},{"route_id":"017","stop_id":"SA331CA","trip_id":"52_815457","time":"10:56:00","stop_name":"XXIV MAGGIO  (in salita)","stop_lon":"14.7660028244881","stop_lat":"40.678092453116"},{"route_id":"017","stop_id":"SA346CA","trip_id":"52_815457","time":"10:57:56","stop_name":"CASALBORE STADIO VESTUTI","stop_lon":"14.7700039168472","stop_lat":"40.6796711126306"},{"route_id":"017","stop_id":"SA335CA","trip_id":"52_815457","time":"10:59:00","stop_name":"S. FRANCESCO","stop_lon":"14.7678286744095","stop_lat":"40.6804567981381"},{"route_id":"017","stop_id":"SA345CA","trip_id":"52_815457","time":"10:59:59","stop_name":"CAVALIERO","stop_lon":"14.766149906058","stop_lat":"40.6834077232487"},{"route_id":"017","stop_id":"FI025UN","trip_id":"52_815457","time":"11:26:00","stop_name":"PARCHEGGIO MULTIPIANO","stop_lon":"14.7927346613151","stop_lat":"40.7671488782853"},{"route_id":"017","stop_id":"FI027UN","trip_id":"52_815457","time":"11:27:29","stop_name":"RESIDENZE UNIVERSITARIE","stop_lon":"14.7953694191567","stop_lat":"40.7722752440895"},{"route_id":"017","stop_id":"FI031UN","trip_id":"52_815457","time":"11:27:49","stop_name":"UNIVERSITA' FISCIANO DON MELILLO","stop_lon":"14.7945331436947","stop_lat":"40.7735290628463"},{"route_id":"017","stop_id":"FI007UN","trip_id":"52_815457","time":"11:28:00","stop_name":"FISCIANO UNIVERSITA","stop_lon":"14.7940717591478","stop_lat":"40.7736710217681"},{"route_id":"017","stop_id":"SA113ME","trip_id":"52_815458","time":"11:30:00","stop_name":"PARCO ARBOSTELLA","stop_lon":"14.8138288411393","stop_lat":"40.6524161935838"},{"route_id":"017","stop_id":"SA062ME","trip_id":"52_815458","time":"11:32:00","stop_name":"PARMENIDE  ARBOSTELLA","stop_lon":"14.8113278577366","stop_lat":"40.6547038900508"},{"route_id":"017","stop_id":"SA068ME","trip_id":"52_815458","time":"11:35:55","stop_name":"TRENTO","stop_lon":"14.8003667551266","stop_lat":"40.6593513960182"},{"route_id":"017","stop_id":"SA074PA","trip_id":"52_815458","time":"11:37:41","stop_name":"DELLA LIBERTA","stop_lon":"14.7969521160175","stop_lat":"40.662900180648"},{"route_id":"017","stop_id":"SA078PA","trip_id":"52_815458","time":"11:38:54","stop_name":"POSIDONIA 309","stop_lon":"14.7940586399325","stop_lat":"40.6649760096238"},{"route_id":"017","stop_id":"SA084TO","trip_id":"52_815458","time":"11:41:00","stop_name":"POSIDONIA  SANTELMO","stop_lon":"14.7885373404976","stop_lat":"40.6681933077779"},{"route_id":"017","stop_id":"SA092TO","trip_id":"52_815458","time":"11:43:56","stop_name":"POSIDONIA OROFINO","stop_lon":"14.7832078401966","stop_lat":"40.6710237873859"},{"route_id":"017","stop_id":"SA094TO","trip_id":"52_815458","time":"11:45:08","stop_name":"TORRIONE FORTE LA CARNALE","stop_lon":"14.7808333463748","stop_lat":"40.6719093388098"},{"route_id":"017","stop_id":"SA098TO","trip_id":"52_815458","time":"11:46:00","stop_name":"TORRIONE MOBILIO","stop_lon":"14.7789949020983","stop_lat":"40.6723720776974"},{"route_id":"017","stop_id":"SA001FE","trip_id":"52_815458","time":"11:49:00","stop_name":"SALERNO STAZIONE","stop_lon":"14.7717522173689","stop_lat":"40.6751631588003"},{"route_id":"017","stop_id":"SA003FE","trip_id":"52_815458","time":"11:50:19","stop_name":"GARIBALDI ACI","stop_lon":"14.7704812533735","stop_lat":"40.6748434418069"},{"route_id":"017","stop_id":"SA005FE","trip_id":"52_815458","time":"11:52:46","stop_name":"GARIBALDI TRIBUNALE","stop_lon":"14.767212476925","stop_lat":"40.6757679696663"},{"route_id":"017","stop_id":"SA331CA","trip_id":"52_815458","time":"11:56:00","stop_name":"XXIV MAGGIO  (in salita)","stop_lon":"14.7660028244881","stop_lat":"40.678092453116"},{"route_id":"017","stop_id":"SA346CA","trip_id":"52_815458","time":"11:57:56","stop_name":"CASALBORE STADIO VESTUTI","stop_lon":"14.7700039168472","stop_lat":"40.6796711126306"},{"route_id":"017","stop_id":"SA335CA","trip_id":"52_815458","time":"11:59:00","stop_name":"S. FRANCESCO","stop_lon":"14.7678286744095","stop_lat":"40.6804567981381"},{"route_id":"017","stop_id":"SA345CA","trip_id":"52_815458","time":"11:59:59","stop_name":"CAVALIERO","stop_lon":"14.766149906058","stop_lat":"40.6834077232487"},{"route_id":"017","stop_id":"FI025UN","trip_id":"52_815458","time":"12:26:00","stop_name":"PARCHEGGIO MULTIPIANO","stop_lon":"14.7927346613151","stop_lat":"40.7671488782853"},{"route_id":"017","stop_id":"FI027UN","trip_id":"52_815458","time":"12:27:29","stop_name":"RESIDENZE UNIVERSITARIE","stop_lon":"14.7953694191567","stop_lat":"40.7722752440895"},{"route_id":"017","stop_id":"FI031UN","trip_id":"52_815458","time":"12:27:49","stop_name":"UNIVERSITA' FISCIANO DON MELILLO","stop_lon":"14.7945331436947","stop_lat":"40.7735290628463"},{"route_id":"017","stop_id":"FI007UN","trip_id":"52_815458","time":"12:28:00","stop_name":"FISCIANO UNIVERSITA","stop_lon":"14.7940717591478","stop_lat":"40.7736710217681"},{"route_id":"017","stop_id":"SA113ME","trip_id":"52_815459","time":"12:30:00","stop_name":"PARCO ARBOSTELLA","stop_lon":"14.8138288411393","stop_lat":"40.6524161935838"},{"route_id":"017","stop_id":"SA062ME","trip_id":"52_815459","time":"12:32:00","stop_name":"PARMENIDE  ARBOSTELLA","stop_lon":"14.8113278577366","stop_lat":"40.6547038900508"},{"route_id":"017","stop_id":"SA068ME","trip_id":"52_815459","time":"12:35:55","stop_name":"TRENTO","stop_lon":"14.8003667551266","stop_lat":"40.6593513960182"},{"route_id":"017","stop_id":"SA074PA","trip_id":"52_815459","time":"12:37:41","stop_name":"DELLA LIBERTA","stop_lon":"14.7969521160175","stop_lat":"40.662900180648"},{"route_id":"017","stop_id":"SA078PA","trip_id":"52_815459","time":"12:38:54","stop_name":"POSIDONIA 309","stop_lon":"14.7940586399325","stop_lat":"40.6649760096238"},{"route_id":"017","stop_id":"SA084TO","trip_id":"52_815459","time":"12:41:00","stop_name":"POSIDONIA  SANTELMO","stop_lon":"14.7885373404976","stop_lat":"40.6681933077779"},{"route_id":"017","stop_id":"SA092TO","trip_id":"52_815459","time":"12:43:56","stop_name":"POSIDONIA OROFINO","stop_lon":"14.7832078401966","stop_lat":"40.6710237873859"},{"route_id":"017","stop_id":"SA094TO","trip_id":"52_815459","time":"12:45:08","stop_name":"TORRIONE FORTE LA CARNALE","stop_lon":"14.7808333463748","stop_lat":"40.6719093388098"},{"route_id":"017","stop_id":"SA098TO","trip_id":"52_815459","time":"12:46:00","stop_name":"TORRIONE MOBILIO","stop_lon":"14.7789949020983","stop_lat":"40.6723720776974"},{"route_id":"017","stop_id":"SA001FE","trip_id":"52_815459","time":"12:49:00","stop_name":"SALERNO STAZIONE","stop_lon":"14.7717522173689","stop_lat":"40.6751631588003"},{"route_id":"017","stop_id":"SA003FE","trip_id":"52_815459","time":"12:50:19","stop_name":"GARIBALDI ACI","stop_lon":"14.7704812533735","stop_lat":"40.6748434418069"},{"route_id":"017","stop_id":"SA005FE","trip_id":"52_815459","time":"12:52:46","stop_name":"GARIBALDI TRIBUNALE","stop_lon":"14.767212476925","stop_lat":"40.6757679696663"},{"route_id":"017","stop_id":"SA331CA","trip_id":"52_815459","time":"12:56:00","stop_name":"XXIV MAGGIO  (in salita)","stop_lon":"14.7660028244881","stop_lat":"40.678092453116"},{"route_id":"017","stop_id":"SA346CA","trip_id":"52_815459","time":"12:57:56","stop_name":"CASALBORE STADIO VESTUTI","stop_lon":"14.7700039168472","stop_lat":"40.6796711126306"},{"route_id":"017","stop_id":"SA335CA","trip_id":"52_815459","time":"12:59:00","stop_name":"S. FRANCESCO","stop_lon":"14.7678286744095","stop_lat":"40.6804567981381"},{"route_id":"017","stop_id":"SA345CA","trip_id":"52_815459","time":"12:59:59","stop_name":"CAVALIERO","stop_lon":"14.766149906058","stop_lat":"40.6834077232487"},{"route_id":"017","stop_id":"FI025UN","trip_id":"52_815459","time":"13:26:00","stop_name":"PARCHEGGIO MULTIPIANO","stop_lon":"14.7927346613151","stop_lat":"40.7671488782853"},{"route_id":"017","stop_id":"FI027UN","trip_id":"52_815459","time":"13:27:29","stop_name":"RESIDENZE UNIVERSITARIE","stop_lon":"14.7953694191567","stop_lat":"40.7722752440895"},{"route_id":"017","stop_id":"FI031UN","trip_id":"52_815459","time":"13:27:49","stop_name":"UNIVERSITA' FISCIANO DON MELILLO","stop_lon":"14.7945331436947","stop_lat":"40.7735290628463"},{"route_id":"017","stop_id":"FI007UN","trip_id":"52_815459","time":"13:28:00","stop_name":"FISCIANO UNIVERSITA","stop_lon":"14.7940717591478","stop_lat":"40.7736710217681"},{"route_id":"017","stop_id":"SA113ME","trip_id":"52_815462","time":"15:30:00","stop_name":"PARCO ARBOSTELLA","stop_lon":"14.8138288411393","stop_lat":"40.6524161935838"},{"route_id":"017","stop_id":"SA062ME","trip_id":"52_815462","time":"15:32:00","stop_name":"PARMENIDE  ARBOSTELLA","stop_lon":"14.8113278577366","stop_lat":"40.6547038900508"},{"route_id":"017","stop_id":"SA068ME","trip_id":"52_815462","time":"15:35:03","stop_name":"TRENTO","stop_lon":"14.8003667551266","stop_lat":"40.6593513960182"},{"route_id":"017","stop_id":"SA074PA","trip_id":"52_815462","time":"15:36:25","stop_name":"DELLA LIBERTA","stop_lon":"14.7969521160175","stop_lat":"40.662900180648"},{"route_id":"017","stop_id":"SA078PA","trip_id":"52_815462","time":"15:37:22","stop_name":"POSIDONIA 309","stop_lon":"14.7940586399325","stop_lat":"40.6649760096238"},{"route_id":"017","stop_id":"SA084TO","trip_id":"52_815462","time":"15:39:00","stop_name":"POSIDONIA  SANTELMO","stop_lon":"14.7885373404976","stop_lat":"40.6681933077779"},{"route_id":"017","stop_id":"SA092TO","trip_id":"52_815462","time":"15:41:21","stop_name":"POSIDONIA OROFINO","stop_lon":"14.7832078401966","stop_lat":"40.6710237873859"},{"route_id":"017","stop_id":"SA094TO","trip_id":"52_815462","time":"15:42:18","stop_name":"TORRIONE FORTE LA CARNALE","stop_lon":"14.7808333463748","stop_lat":"40.6719093388098"},{"route_id":"017","stop_id":"SA098TO","trip_id":"52_815462","time":"15:43:00","stop_name":"TORRIONE MOBILIO","stop_lon":"14.7789949020983","stop_lat":"40.6723720776974"},{"route_id":"017","stop_id":"SA001FE","trip_id":"52_815462","time":"15:46:00","stop_name":"SALERNO STAZIONE","stop_lon":"14.7717522173689","stop_lat":"40.6751631588003"},{"route_id":"017","stop_id":"SA003FE","trip_id":"52_815462","time":"15:47:19","stop_name":"GARIBALDI ACI","stop_lon":"14.7704812533735","stop_lat":"40.6748434418069"},{"route_id":"017","stop_id":"SA005FE","trip_id":"52_815462","time":"15:49:46","stop_name":"GARIBALDI TRIBUNALE","stop_lon":"14.767212476925","stop_lat":"40.6757679696663"},{"route_id":"017","stop_id":"SA331CA","trip_id":"52_815462","time":"15:53:00","stop_name":"XXIV MAGGIO  (in salita)","stop_lon":"14.7660028244881","stop_lat":"40.678092453116"},{"route_id":"017","stop_id":"SA346CA","trip_id":"52_815462","time":"15:54:18","stop_name":"CASALBORE STADIO VESTUTI","stop_lon":"14.7700039168472","stop_lat":"40.6796711126306"},{"route_id":"017","stop_id":"SA335CA","trip_id":"52_815462","time":"15:55:00","stop_name":"S. FRANCESCO","stop_lon":"14.7678286744095","stop_lat":"40.6804567981381"},{"route_id":"017","stop_id":"SA345CA","trip_id":"52_815462","time":"15:55:57","stop_name":"CAVALIERO","stop_lon":"14.766149906058","stop_lat":"40.6834077232487"},{"route_id":"017","stop_id":"FI025UN","trip_id":"52_815462","time":"16:21:04","stop_name":"PARCHEGGIO MULTIPIANO","stop_lon":"14.7927346613151","stop_lat":"40.7671488782853"},{"route_id":"017","stop_id":"FI027UN","trip_id":"52_815462","time":"16:22:30","stop_name":"RESIDENZE UNIVERSITARIE","stop_lon":"14.7953694191567","stop_lat":"40.7722752440895"},{"route_id":"017","stop_id":"FI031UN","trip_id":"52_815462","time":"16:22:49","stop_name":"UNIVERSITA' FISCIANO DON MELILLO","stop_lon":"14.7945331436947","stop_lat":"40.7735290628463"},{"route_id":"017","stop_id":"FI007UN","trip_id":"52_815462","time":"16:23:00","stop_name":"FISCIANO UNIVERSITA","stop_lon":"14.7940717591478","stop_lat":"40.7736710217681"},{"route_id":"017","stop_id":"SA113ME","trip_id":"52_815463","time":"16:30:00","stop_name":"PARCO ARBOSTELLA","stop_lon":"14.8138288411393","stop_lat":"40.6524161935838"},{"route_id":"017","stop_id":"SA062ME","trip_id":"52_815463","time":"16:32:00","stop_name":"PARMENIDE  ARBOSTELLA","stop_lon":"14.8113278577366","stop_lat":"40.6547038900508"},{"route_id":"017","stop_id":"SA068ME","trip_id":"52_815463","time":"16:36:22","stop_name":"TRENTO","stop_lon":"14.8003667551266","stop_lat":"40.6593513960182"},{"route_id":"017","stop_id":"SA074PA","trip_id":"52_815463","time":"16:38:19","stop_name":"DELLA LIBERTA","stop_lon":"14.7969521160175","stop_lat":"40.662900180648"},{"route_id":"017","stop_id":"SA078PA","trip_id":"52_815463","time":"16:39:40","stop_name":"POSIDONIA 309","stop_lon":"14.7940586399325","stop_lat":"40.6649760096238"},{"route_id":"017","stop_id":"SA084TO","trip_id":"52_815463","time":"16:42:00","stop_name":"POSIDONIA  SANTELMO","stop_lon":"14.7885373404976","stop_lat":"40.6681933077779"},{"route_id":"017","stop_id":"SA092TO","trip_id":"52_815463","time":"16:44:21","stop_name":"POSIDONIA OROFINO","stop_lon":"14.7832078401966","stop_lat":"40.6710237873859"},{"route_id":"017","stop_id":"SA094TO","trip_id":"52_815463","time":"16:45:18","stop_name":"TORRIONE FORTE LA CARNALE","stop_lon":"14.7808333463748","stop_lat":"40.6719093388098"},{"route_id":"017","stop_id":"SA098TO","trip_id":"52_815463","time":"16:46:00","stop_name":"TORRIONE MOBILIO","stop_lon":"14.7789949020983","stop_lat":"40.6723720776974"},{"route_id":"017","stop_id":"SA001FE","trip_id":"52_815463","time":"16:49:00","stop_name":"SALERNO STAZIONE","stop_lon":"14.7717522173689","stop_lat":"40.6751631588003"},{"route_id":"017","stop_id":"SA003FE","trip_id":"52_815463","time":"16:50:19","stop_name":"GARIBALDI ACI","stop_lon":"14.7704812533735","stop_lat":"40.6748434418069"},{"route_id":"017","stop_id":"SA005FE","trip_id":"52_815463","time":"16:52:46","stop_name":"GARIBALDI TRIBUNALE","stop_lon":"14.767212476925","stop_lat":"40.6757679696663"},{"route_id":"017","stop_id":"SA331CA","trip_id":"52_815463","time":"16:56:00","stop_name":"XXIV MAGGIO  (in salita)","stop_lon":"14.7660028244881","stop_lat":"40.678092453116"},{"route_id":"017","stop_id":"SA346CA","trip_id":"52_815463","time":"16:57:18","stop_name":"CASALBORE STADIO VESTUTI","stop_lon":"14.7700039168472","stop_lat":"40.6796711126306"},{"route_id":"017","stop_id":"SA335CA","trip_id":"52_815463","time":"16:58:00","stop_name":"S. FRANCESCO","stop_lon":"14.7678286744095","stop_lat":"40.6804567981381"},{"route_id":"017","stop_id":"SA345CA","trip_id":"52_815463","time":"16:58:57","stop_name":"CAVALIERO","stop_lon":"14.766149906058","stop_lat":"40.6834077232487"},{"route_id":"017","stop_id":"FI025UN","trip_id":"52_815463","time":"17:24:04","stop_name":"PARCHEGGIO MULTIPIANO","stop_lon":"14.7927346613151","stop_lat":"40.7671488782853"},{"route_id":"017","stop_id":"FI027UN","trip_id":"52_815463","time":"17:25:30","stop_name":"RESIDENZE UNIVERSITARIE","stop_lon":"14.7953694191567","stop_lat":"40.7722752440895"},{"route_id":"017","stop_id":"FI031UN","trip_id":"52_815463","time":"17:25:49","stop_name":"UNIVERSITA' FISCIANO DON MELILLO","stop_lon":"14.7945331436947","stop_lat":"40.7735290628463"},{"route_id":"017","stop_id":"FI007UN","trip_id":"52_815463","time":"17:26:00","stop_name":"FISCIANO UNIVERSITA","stop_lon":"14.7940717591478","stop_lat":"40.7736710217681"},{"route_id":"017","stop_id":"SA113ME","trip_id":"52_815464","time":"17:30:00","stop_name":"PARCO ARBOSTELLA","stop_lon":"14.8138288411393","stop_lat":"40.6524161935838"},{"route_id":"017","stop_id":"SA062ME","trip_id":"52_815464","time":"17:32:00","stop_name":"PARMENIDE  ARBOSTELLA","stop_lon":"14.8113278577366","stop_lat":"40.6547038900508"},{"route_id":"017","stop_id":"SA068ME","trip_id":"52_815464","time":"17:36:22","stop_name":"TRENTO","stop_lon":"14.8003667551266","stop_lat":"40.6593513960182"},{"route_id":"017","stop_id":"SA074PA","trip_id":"52_815464","time":"17:38:19","stop_name":"DELLA LIBERTA","stop_lon":"14.7969521160175","stop_lat":"40.662900180648"},{"route_id":"017","stop_id":"SA078PA","trip_id":"52_815464","time":"17:39:40","stop_name":"POSIDONIA 309","stop_lon":"14.7940586399325","stop_lat":"40.6649760096238"},{"route_id":"017","stop_id":"SA084TO","trip_id":"52_815464","time":"17:42:00","stop_name":"POSIDONIA  SANTELMO","stop_lon":"14.7885373404976","stop_lat":"40.6681933077779"},{"route_id":"017","stop_id":"SA092TO","trip_id":"52_815464","time":"17:44:21","stop_name":"POSIDONIA OROFINO","stop_lon":"14.7832078401966","stop_lat":"40.6710237873859"},{"route_id":"017","stop_id":"SA094TO","trip_id":"52_815464","time":"17:45:18","stop_name":"TORRIONE FORTE LA CARNALE","stop_lon":"14.7808333463748","stop_lat":"40.6719093388098"},{"route_id":"017","stop_id":"SA098TO","trip_id":"52_815464","time":"17:46:00","stop_name":"TORRIONE MOBILIO","stop_lon":"14.7789949020983","stop_lat":"40.6723720776974"},{"route_id":"017","stop_id":"SA001FE","trip_id":"52_815464","time":"17:49:00","stop_name":"SALERNO STAZIONE","stop_lon":"14.7717522173689","stop_lat":"40.6751631588003"},{"route_id":"017","stop_id":"SA003FE","trip_id":"52_815464","time":"17:50:19","stop_name":"GARIBALDI ACI","stop_lon":"14.7704812533735","stop_lat":"40.6748434418069"},{"route_id":"017","stop_id":"SA005FE","trip_id":"52_815464","time":"17:52:46","stop_name":"GARIBALDI TRIBUNALE","stop_lon":"14.767212476925","stop_lat":"40.6757679696663"},{"route_id":"017","stop_id":"SA331CA","trip_id":"52_815464","time":"17:56:00","stop_name":"XXIV MAGGIO  (in salita)","stop_lon":"14.7660028244881","stop_lat":"40.678092453116"},{"route_id":"017","stop_id":"SA346CA","trip_id":"52_815464","time":"17:57:18","stop_name":"CASALBORE STADIO VESTUTI","stop_lon":"14.7700039168472","stop_lat":"40.6796711126306"},{"route_id":"017","stop_id":"SA335CA","trip_id":"52_815464","time":"17:58:00","stop_name":"S. FRANCESCO","stop_lon":"14.7678286744095","stop_lat":"40.6804567981381"},{"route_id":"017","stop_id":"SA345CA","trip_id":"52_815464","time":"17:58:59","stop_name":"CAVALIERO","stop_lon":"14.766149906058","stop_lat":"40.6834077232487"},{"route_id":"017","stop_id":"FI025UN","trip_id":"52_815464","time":"18:25:00","stop_name":"PARCHEGGIO MULTIPIANO","stop_lon":"14.7927346613151","stop_lat":"40.7671488782853"},{"route_id":"017","stop_id":"FI027UN","trip_id":"52_815464","time":"18:26:29","stop_name":"RESIDENZE UNIVERSITARIE","stop_lon":"14.7953694191567","stop_lat":"40.7722752440895"},{"route_id":"017","stop_id":"FI031UN","trip_id":"52_815464","time":"18:26:49","stop_name":"UNIVERSITA' FISCIANO DON MELILLO","stop_lon":"14.7945331436947","stop_lat":"40.7735290628463"},{"route_id":"017","stop_id":"FI007UN","trip_id":"52_815464","time":"18:27:00","stop_name":"FISCIANO UNIVERSITA","stop_lon":"14.7940717591478","stop_lat":"40.7736710217681"},{"route_id":"027","stop_id":"SA113ME","trip_id":"52_817170","time":"09:00:00","stop_name":"PARCO ARBOSTELLA","stop_lon":"14.8138288411393","stop_lat":"40.6524161935838"},{"route_id":"027","stop_id":"SA062ME","trip_id":"52_817170","time":"09:02:00","stop_name":"PARMENIDE  ARBOSTELLA","stop_lon":"14.8113278577366","stop_lat":"40.6547038900508"},{"route_id":"027","stop_id":"SA068ME","trip_id":"52_817170","time":"09:05:55","stop_name":"TRENTO","stop_lon":"14.8003667551266","stop_lat":"40.6593513960182"},{"route_id":"027","stop_id":"SA074PA","trip_id":"52_817170","time":"09:07:41","stop_name":"DELLA LIBERTA","stop_lon":"14.7969521160175","stop_lat":"40.662900180648"},{"route_id":"027","stop_id":"SA078PA","trip_id":"52_817170","time":"09:08:54","stop_name":"POSIDONIA 309","stop_lon":"14.7940586399325","stop_lat":"40.6649760096238"},{"route_id":"027","stop_id":"SA084TO","trip_id":"52_817170","time":"09:11:00","stop_name":"POSIDONIA  SANTELMO","stop_lon":"14.7885373404976","stop_lat":"40.6681933077779"},{"route_id":"027","stop_id":"SA092TO","trip_id":"52_817170","time":"09:13:56","stop_name":"POSIDONIA OROFINO","stop_lon":"14.7832078401966","stop_lat":"40.6710237873859"},{"route_id":"027","stop_id":"SA094TO","trip_id":"52_817170","time":"09:15:08","stop_name":"TORRIONE FORTE LA CARNALE","stop_lon":"14.7808333463748","stop_lat":"40.6719093388098"},{"route_id":"027","stop_id":"SA098TO","trip_id":"52_817170","time":"09:16:00","stop_name":"TORRIONE MOBILIO","stop_lon":"14.7789949020983","stop_lat":"40.6723720776974"},{"route_id":"027","stop_id":"SA625TO","trip_id":"52_817170","time":"09:18:37","stop_name":"L. GUERCIO 353","stop_lon":"14.7786790138318","stop_lat":"40.6745370452438"},{"route_id":"027","stop_id":"SA621TO","trip_id":"52_817170","time":"09:20:00","stop_name":"L. GUERCIO","stop_lon":"14.7771231503461","stop_lat":"40.6773672054766"},{"route_id":"027","stop_id":"SA415FR","trip_id":"52_817170","time":"09:23:00","stop_name":"IRNO","stop_lon":"14.7752325905405","stop_lat":"40.6825713135928"},{"route_id":"027","stop_id":"SA419FR","trip_id":"52_817170","time":"09:24:14","stop_name":"IRNO - BIVIO CIMITERO","stop_lon":"14.7773088553466","stop_lat":"40.6862755465933"},{"route_id":"027","stop_id":"FI025UN","trip_id":"52_817170","time":"09:52:23","stop_name":"PARCHEGGIO MULTIPIANO","stop_lon":"14.7927346613151","stop_lat":"40.7671488782853"},{"route_id":"027","stop_id":"FI027UN","trip_id":"52_817170","time":"09:54:20","stop_name":"RESIDENZE UNIVERSITARIE","stop_lon":"14.7953694191567","stop_lat":"40.7722752440895"},{"route_id":"027","stop_id":"FI031UN","trip_id":"52_817170","time":"09:54:45","stop_name":"UNIVERSITA' FISCIANO DON MELILLO","stop_lon":"14.7945331436947","stop_lat":"40.7735290628463"},{"route_id":"027","stop_id":"FI007UN","trip_id":"52_817170","time":"09:55:00","stop_name":"FISCIANO UNIVERSITA","stop_lon":"14.7940717591478","stop_lat":"40.7736710217681"},{"route_id":"027","stop_id":"SA113ME","trip_id":"52_816059","time":"09:30:00","stop_name":"PARCO ARBOSTELLA","stop_lon":"14.8138288411393","stop_lat":"40.6524161935838"},{"route_id":"027","stop_id":"SA062ME","trip_id":"52_816059","time":"09:32:00","stop_name":"PARMENIDE  ARBOSTELLA","stop_lon":"14.8113278577366","stop_lat":"40.6547038900508"},{"route_id":"027","stop_id":"SA068ME","trip_id":"52_816059","time":"09:35:55","stop_name":"TRENTO","stop_lon":"14.8003667551266","stop_lat":"40.6593513960182"},{"route_id":"027","stop_id":"SA074PA","trip_id":"52_816059","time":"09:37:41","stop_name":"DELLA LIBERTA","stop_lon":"14.7969521160175","stop_lat":"40.662900180648"},{"route_id":"027","stop_id":"SA078PA","trip_id":"52_816059","time":"09:38:54","stop_name":"POSIDONIA 309","stop_lon":"14.7940586399325","stop_lat":"40.6649760096238"},{"route_id":"027","stop_id":"SA084TO","trip_id":"52_816059","time":"09:41:00","stop_name":"POSIDONIA  SANTELMO","stop_lon":"14.7885373404976","stop_lat":"40.6681933077779"},{"route_id":"027","stop_id":"SA092TO","trip_id":"52_816059","time":"09:43:56","stop_name":"POSIDONIA OROFINO","stop_lon":"14.7832078401966","stop_lat":"40.6710237873859"},{"route_id":"027","stop_id":"SA094TO","trip_id":"52_816059","time":"09:45:08","stop_name":"TORRIONE FORTE LA CARNALE","stop_lon":"14.7808333463748","stop_lat":"40.6719093388098"},{"route_id":"027","stop_id":"SA098TO","trip_id":"52_816059","time":"09:46:00","stop_name":"TORRIONE MOBILIO","stop_lon":"14.7789949020983","stop_lat":"40.6723720776974"},{"route_id":"027","stop_id":"SA625TO","trip_id":"52_816059","time":"09:48:37","stop_name":"L. GUERCIO 353","stop_lon":"14.7786790138318","stop_lat":"40.6745370452438"},{"route_id":"027","stop_id":"SA621TO","trip_id":"52_816059","time":"09:50:00","stop_name":"L. GUERCIO","stop_lon":"14.7771231503461","stop_lat":"40.6773672054766"},{"route_id":"027","stop_id":"SA415FR","trip_id":"52_816059","time":"09:53:00","stop_name":"IRNO","stop_lon":"14.7752325905405","stop_lat":"40.6825713135928"},{"route_id":"027","stop_id":"SA419FR","trip_id":"52_816059","time":"09:54:14","stop_name":"IRNO - BIVIO CIMITERO","stop_lon":"14.7773088553466","stop_lat":"40.6862755465933"},{"route_id":"027","stop_id":"FI025UN","trip_id":"52_816059","time":"10:22:23","stop_name":"PARCHEGGIO MULTIPIANO","stop_lon":"14.7927346613151","stop_lat":"40.7671488782853"},{"route_id":"027","stop_id":"FI027UN","trip_id":"52_816059","time":"10:24:20","stop_name":"RESIDENZE UNIVERSITARIE","stop_lon":"14.7953694191567","stop_lat":"40.7722752440895"},{"route_id":"027","stop_id":"FI031UN","trip_id":"52_816059","time":"10:24:45","stop_name":"UNIVERSITA' FISCIANO DON MELILLO","stop_lon":"14.7945331436947","stop_lat":"40.7735290628463"},{"route_id":"027","stop_id":"FI007UN","trip_id":"52_816059","time":"10:25:00","stop_name":"FISCIANO UNIVERSITA","stop_lon":"14.7940717591478","stop_lat":"40.7736710217681"},{"route_id":"027","stop_id":"SA113ME","trip_id":"52_817171","time":"10:00:00","stop_name":"PARCO ARBOSTELLA","stop_lon":"14.8138288411393","stop_lat":"40.6524161935838"},{"route_id":"027","stop_id":"SA062ME","trip_id":"52_817171","time":"10:02:00","stop_name":"PARMENIDE  ARBOSTELLA","stop_lon":"14.8113278577366","stop_lat":"40.6547038900508"},{"route_id":"027","stop_id":"SA068ME","trip_id":"52_817171","time":"10:05:55","stop_name":"TRENTO","stop_lon":"14.8003667551266","stop_lat":"40.6593513960182"},{"route_id":"027","stop_id":"SA074PA","trip_id":"52_817171","time":"10:07:41","stop_name":"DELLA LIBERTA","stop_lon":"14.7969521160175","stop_lat":"40.662900180648"},{"route_id":"027","stop_id":"SA078PA","trip_id":"52_817171","time":"10:08:54","stop_name":"POSIDONIA 309","stop_lon":"14.7940586399325","stop_lat":"40.6649760096238"},{"route_id":"027","stop_id":"SA084TO","trip_id":"52_817171","time":"10:11:00","stop_name":"POSIDONIA  SANTELMO","stop_lon":"14.7885373404976","stop_lat":"40.6681933077779"},{"route_id":"027","stop_id":"SA092TO","trip_id":"52_817171","time":"10:13:56","stop_name":"POSIDONIA OROFINO","stop_lon":"14.7832078401966","stop_lat":"40.6710237873859"},{"route_id":"027","stop_id":"SA094TO","trip_id":"52_817171","time":"10:15:08","stop_name":"TORRIONE FORTE LA CARNALE","stop_lon":"14.7808333463748","stop_lat":"40.6719093388098"},{"route_id":"027","stop_id":"SA098TO","trip_id":"52_817171","time":"10:16:00","stop_name":"TORRIONE MOBILIO","stop_lon":"14.7789949020983","stop_lat":"40.6723720776974"},{"route_id":"027","stop_id":"SA625TO","trip_id":"52_817171","time":"10:18:37","stop_name":"L. GUERCIO 353","stop_lon":"14.7786790138318","stop_lat":"40.6745370452438"},{"route_id":"027","stop_id":"SA621TO","trip_id":"52_817171","time":"10:20:00","stop_name":"L. GUERCIO","stop_lon":"14.7771231503461","stop_lat":"40.6773672054766"},{"route_id":"027","stop_id":"SA415FR","trip_id":"52_817171","time":"10:23:00","stop_name":"IRNO","stop_lon":"14.7752325905405","stop_lat":"40.6825713135928"},{"route_id":"027","stop_id":"SA419FR","trip_id":"52_817171","time":"10:24:14","stop_name":"IRNO - BIVIO CIMITERO","stop_lon":"14.7773088553466","stop_lat":"40.6862755465933"},{"route_id":"027","stop_id":"FI025UN","trip_id":"52_817171","time":"10:52:23","stop_name":"PARCHEGGIO MULTIPIANO","stop_lon":"14.7927346613151","stop_lat":"40.7671488782853"},{"route_id":"027","stop_id":"FI027UN","trip_id":"52_817171","time":"10:54:20","stop_name":"RESIDENZE UNIVERSITARIE","stop_lon":"14.7953694191567","stop_lat":"40.7722752440895"},{"route_id":"027","stop_id":"FI031UN","trip_id":"52_817171","time":"10:54:45","stop_name":"UNIVERSITA' FISCIANO DON MELILLO","stop_lon":"14.7945331436947","stop_lat":"40.7735290628463"},{"route_id":"027","stop_id":"FI007UN","trip_id":"52_817171","time":"10:55:00","stop_name":"FISCIANO UNIVERSITA","stop_lon":"14.7940717591478","stop_lat":"40.7736710217681"},{"route_id":"027","stop_id":"SA113ME","trip_id":"52_816060","time":"10:30:00","stop_name":"PARCO ARBOSTELLA","stop_lon":"14.8138288411393","stop_lat":"40.6524161935838"},{"route_id":"027","stop_id":"SA062ME","trip_id":"52_816060","time":"10:32:00","stop_name":"PARMENIDE  ARBOSTELLA","stop_lon":"14.8113278577366","stop_lat":"40.6547038900508"},{"route_id":"027","stop_id":"SA068ME","trip_id":"52_816060","time":"10:35:55","stop_name":"TRENTO","stop_lon":"14.8003667551266","stop_lat":"40.6593513960182"},{"route_id":"027","stop_id":"SA074PA","trip_id":"52_816060","time":"10:37:41","stop_name":"DELLA LIBERTA","stop_lon":"14.7969521160175","stop_lat":"40.662900180648"},{"route_id":"027","stop_id":"SA078PA","trip_id":"52_816060","time":"10:38:54","stop_name":"POSIDONIA 309","stop_lon":"14.7940586399325","stop_lat":"40.6649760096238"},{"route_id":"027","stop_id":"SA084TO","trip_id":"52_816060","time":"10:41:00","stop_name":"POSIDONIA  SANTELMO","stop_lon":"14.7885373404976","stop_lat":"40.6681933077779"},{"route_id":"027","stop_id":"SA092TO","trip_id":"52_816060","time":"10:43:56","stop_name":"POSIDONIA OROFINO","stop_lon":"14.7832078401966","stop_lat":"40.6710237873859"},{"route_id":"027","stop_id":"SA094TO","trip_id":"52_816060","time":"10:45:08","stop_name":"TORRIONE FORTE LA CARNALE","stop_lon":"14.7808333463748","stop_lat":"40.6719093388098"},{"route_id":"027","stop_id":"SA098TO","trip_id":"52_816060","time":"10:46:00","stop_name":"TORRIONE MOBILIO","stop_lon":"14.7789949020983","stop_lat":"40.6723720776974"},{"route_id":"027","stop_id":"SA625TO","trip_id":"52_816060","time":"10:48:37","stop_name":"L. GUERCIO 353","stop_lon":"14.7786790138318","stop_lat":"40.6745370452438"},{"route_id":"027","stop_id":"SA621TO","trip_id":"52_816060","time":"10:50:00","stop_name":"L. GUERCIO","stop_lon":"14.7771231503461","stop_lat":"40.6773672054766"},{"route_id":"027","stop_id":"SA415FR","trip_id":"52_816060","time":"10:53:00","stop_name":"IRNO","stop_lon":"14.7752325905405","stop_lat":"40.6825713135928"},{"route_id":"027","stop_id":"SA419FR","trip_id":"52_816060","time":"10:54:14","stop_name":"IRNO - BIVIO CIMITERO","stop_lon":"14.7773088553466","stop_lat":"40.6862755465933"},{"route_id":"027","stop_id":"FI025UN","trip_id":"52_816060","time":"11:22:23","stop_name":"PARCHEGGIO MULTIPIANO","stop_lon":"14.7927346613151","stop_lat":"40.7671488782853"},{"route_id":"027","stop_id":"FI027UN","trip_id":"52_816060","time":"11:24:20","stop_name":"RESIDENZE UNIVERSITARIE","stop_lon":"14.7953694191567","stop_lat":"40.7722752440895"},{"route_id":"027","stop_id":"FI031UN","trip_id":"52_816060","time":"11:24:45","stop_name":"UNIVERSITA' FISCIANO DON MELILLO","stop_lon":"14.7945331436947","stop_lat":"40.7735290628463"},{"route_id":"027","stop_id":"FI007UN","trip_id":"52_816060","time":"11:25:00","stop_name":"FISCIANO UNIVERSITA","stop_lon":"14.7940717591478","stop_lat":"40.7736710217681"},{"route_id":"027","stop_id":"SA113ME","trip_id":"52_817172","time":"11:00:00","stop_name":"PARCO ARBOSTELLA","stop_lon":"14.8138288411393","stop_lat":"40.6524161935838"},{"route_id":"027","stop_id":"SA062ME","trip_id":"52_817172","time":"11:02:00","stop_name":"PARMENIDE  ARBOSTELLA","stop_lon":"14.8113278577366","stop_lat":"40.6547038900508"},{"route_id":"027","stop_id":"SA068ME","trip_id":"52_817172","time":"11:05:55","stop_name":"TRENTO","stop_lon":"14.8003667551266","stop_lat":"40.6593513960182"},{"route_id":"027","stop_id":"SA074PA","trip_id":"52_817172","time":"11:07:41","stop_name":"DELLA LIBERTA","stop_lon":"14.7969521160175","stop_lat":"40.662900180648"},{"route_id":"027","stop_id":"SA078PA","trip_id":"52_817172","time":"11:08:54","stop_name":"POSIDONIA 309","stop_lon":"14.7940586399325","stop_lat":"40.6649760096238"},{"route_id":"027","stop_id":"SA084TO","trip_id":"52_817172","time":"11:11:00","stop_name":"POSIDONIA  SANTELMO","stop_lon":"14.7885373404976","stop_lat":"40.6681933077779"},{"route_id":"027","stop_id":"SA092TO","trip_id":"52_817172","time":"11:13:56","stop_name":"POSIDONIA OROFINO","stop_lon":"14.7832078401966","stop_lat":"40.6710237873859"},{"route_id":"027","stop_id":"SA094TO","trip_id":"52_817172","time":"11:15:08","stop_name":"TORRIONE FORTE LA CARNALE","stop_lon":"14.7808333463748","stop_lat":"40.6719093388098"},{"route_id":"027","stop_id":"SA098TO","trip_id":"52_817172","time":"11:16:00","stop_name":"TORRIONE MOBILIO","stop_lon":"14.7789949020983","stop_lat":"40.6723720776974"},{"route_id":"027","stop_id":"SA625TO","trip_id":"52_817172","time":"11:18:37","stop_name":"L. GUERCIO 353","stop_lon":"14.7786790138318","stop_lat":"40.6745370452438"},{"route_id":"027","stop_id":"SA621TO","trip_id":"52_817172","time":"11:20:00","stop_name":"L. GUERCIO","stop_lon":"14.7771231503461","stop_lat":"40.6773672054766"},{"route_id":"027","stop_id":"SA415FR","trip_id":"52_817172","time":"11:23:00","stop_name":"IRNO","stop_lon":"14.7752325905405","stop_lat":"40.6825713135928"},{"route_id":"027","stop_id":"SA419FR","trip_id":"52_817172","time":"11:24:14","stop_name":"IRNO - BIVIO CIMITERO","stop_lon":"14.7773088553466","stop_lat":"40.6862755465933"},{"route_id":"027","stop_id":"FI025UN","trip_id":"52_817172","time":"11:52:23","stop_name":"PARCHEGGIO MULTIPIANO","stop_lon":"14.7927346613151","stop_lat":"40.7671488782853"},{"route_id":"027","stop_id":"FI027UN","trip_id":"52_817172","time":"11:54:20","stop_name":"RESIDENZE UNIVERSITARIE","stop_lon":"14.7953694191567","stop_lat":"40.7722752440895"},{"route_id":"027","stop_id":"FI031UN","trip_id":"52_817172","time":"11:54:45","stop_name":"UNIVERSITA' FISCIANO DON MELILLO","stop_lon":"14.7945331436947","stop_lat":"40.7735290628463"},{"route_id":"027","stop_id":"FI007UN","trip_id":"52_817172","time":"11:55:00","stop_name":"FISCIANO UNIVERSITA","stop_lon":"14.7940717591478","stop_lat":"40.7736710217681"},{"route_id":"027","stop_id":"SA113ME","trip_id":"52_816061","time":"11:30:00","stop_name":"PARCO ARBOSTELLA","stop_lon":"14.8138288411393","stop_lat":"40.6524161935838"},{"route_id":"027","stop_id":"SA062ME","trip_id":"52_816061","time":"11:32:00","stop_name":"PARMENIDE  ARBOSTELLA","stop_lon":"14.8113278577366","stop_lat":"40.6547038900508"},{"route_id":"027","stop_id":"SA068ME","trip_id":"52_816061","time":"11:35:55","stop_name":"TRENTO","stop_lon":"14.8003667551266","stop_lat":"40.6593513960182"},{"route_id":"027","stop_id":"SA074PA","trip_id":"52_816061","time":"11:37:41","stop_name":"DELLA LIBERTA","stop_lon":"14.7969521160175","stop_lat":"40.662900180648"},{"route_id":"027","stop_id":"SA078PA","trip_id":"52_816061","time":"11:38:54","stop_name":"POSIDONIA 309","stop_lon":"14.7940586399325","stop_lat":"40.6649760096238"},{"route_id":"027","stop_id":"SA084TO","trip_id":"52_816061","time":"11:41:00","stop_name":"POSIDONIA  SANTELMO","stop_lon":"14.7885373404976","stop_lat":"40.6681933077779"},{"route_id":"027","stop_id":"SA092TO","trip_id":"52_816061","time":"11:43:56","stop_name":"POSIDONIA OROFINO","stop_lon":"14.7832078401966","stop_lat":"40.6710237873859"},{"route_id":"027","stop_id":"SA094TO","trip_id":"52_816061","time":"11:45:08","stop_name":"TORRIONE FORTE LA CARNALE","stop_lon":"14.7808333463748","stop_lat":"40.6719093388098"},{"route_id":"027","stop_id":"SA098TO","trip_id":"52_816061","time":"11:46:00","stop_name":"TORRIONE MOBILIO","stop_lon":"14.7789949020983","stop_lat":"40.6723720776974"},{"route_id":"027","stop_id":"SA625TO","trip_id":"52_816061","time":"11:48:37","stop_name":"L. GUERCIO 353","stop_lon":"14.7786790138318","stop_lat":"40.6745370452438"},{"route_id":"027","stop_id":"SA621TO","trip_id":"52_816061","time":"11:50:00","stop_name":"L. GUERCIO","stop_lon":"14.7771231503461","stop_lat":"40.6773672054766"},{"route_id":"027","stop_id":"SA415FR","trip_id":"52_816061","time":"11:53:00","stop_name":"IRNO","stop_lon":"14.7752325905405","stop_lat":"40.6825713135928"},{"route_id":"027","stop_id":"SA419FR","trip_id":"52_816061","time":"11:54:14","stop_name":"IRNO - BIVIO CIMITERO","stop_lon":"14.7773088553466","stop_lat":"40.6862755465933"},{"route_id":"027","stop_id":"FI025UN","trip_id":"52_816061","time":"12:22:23","stop_name":"PARCHEGGIO MULTIPIANO","stop_lon":"14.7927346613151","stop_lat":"40.7671488782853"},{"route_id":"027","stop_id":"FI027UN","trip_id":"52_816061","time":"12:24:20","stop_name":"RESIDENZE UNIVERSITARIE","stop_lon":"14.7953694191567","stop_lat":"40.7722752440895"},{"route_id":"027","stop_id":"FI031UN","trip_id":"52_816061","time":"12:24:45","stop_name":"UNIVERSITA' FISCIANO DON MELILLO","stop_lon":"14.7945331436947","stop_lat":"40.7735290628463"},{"route_id":"027","stop_id":"FI007UN","trip_id":"52_816061","time":"12:25:00","stop_name":"FISCIANO UNIVERSITA","stop_lon":"14.7940717591478","stop_lat":"40.7736710217681"},{"route_id":"027","stop_id":"SA113ME","trip_id":"52_817173","time":"12:00:00","stop_name":"PARCO ARBOSTELLA","stop_lon":"14.8138288411393","stop_lat":"40.6524161935838"},{"route_id":"027","stop_id":"SA062ME","trip_id":"52_817173","time":"12:02:00","stop_name":"PARMENIDE  ARBOSTELLA","stop_lon":"14.8113278577366","stop_lat":"40.6547038900508"},{"route_id":"027","stop_id":"SA068ME","trip_id":"52_817173","time":"12:05:55","stop_name":"TRENTO","stop_lon":"14.8003667551266","stop_lat":"40.6593513960182"},{"route_id":"027","stop_id":"SA074PA","trip_id":"52_817173","time":"12:07:41","stop_name":"DELLA LIBERTA","stop_lon":"14.7969521160175","stop_lat":"40.662900180648"},{"route_id":"027","stop_id":"SA078PA","trip_id":"52_817173","time":"12:08:54","stop_name":"POSIDONIA 309","stop_lon":"14.7940586399325","stop_lat":"40.6649760096238"},{"route_id":"027","stop_id":"SA084TO","trip_id":"52_817173","time":"12:11:00","stop_name":"POSIDONIA  SANTELMO","stop_lon":"14.7885373404976","stop_lat":"40.6681933077779"},{"route_id":"027","stop_id":"SA092TO","trip_id":"52_817173","time":"12:13:56","stop_name":"POSIDONIA OROFINO","stop_lon":"14.7832078401966","stop_lat":"40.6710237873859"},{"route_id":"027","stop_id":"SA094TO","trip_id":"52_817173","time":"12:15:08","stop_name":"TORRIONE FORTE LA CARNALE","stop_lon":"14.7808333463748","stop_lat":"40.6719093388098"},{"route_id":"027","stop_id":"SA098TO","trip_id":"52_817173","time":"12:16:00","stop_name":"TORRIONE MOBILIO","stop_lon":"14.7789949020983","stop_lat":"40.6723720776974"},{"route_id":"027","stop_id":"SA625TO","trip_id":"52_817173","time":"12:18:37","stop_name":"L. GUERCIO 353","stop_lon":"14.7786790138318","stop_lat":"40.6745370452438"},{"route_id":"027","stop_id":"SA621TO","trip_id":"52_817173","time":"12:20:00","stop_name":"L. GUERCIO","stop_lon":"14.7771231503461","stop_lat":"40.6773672054766"},{"route_id":"027","stop_id":"SA415FR","trip_id":"52_817173","time":"12:23:00","stop_name":"IRNO","stop_lon":"14.7752325905405","stop_lat":"40.6825713135928"},{"route_id":"027","stop_id":"SA419FR","trip_id":"52_817173","time":"12:24:14","stop_name":"IRNO - BIVIO CIMITERO","stop_lon":"14.7773088553466","stop_lat":"40.6862755465933"},{"route_id":"027","stop_id":"FI025UN","trip_id":"52_817173","time":"12:52:23","stop_name":"PARCHEGGIO MULTIPIANO","stop_lon":"14.7927346613151","stop_lat":"40.7671488782853"},{"route_id":"027","stop_id":"FI027UN","trip_id":"52_817173","time":"12:54:20","stop_name":"RESIDENZE UNIVERSITARIE","stop_lon":"14.7953694191567","stop_lat":"40.7722752440895"},{"route_id":"027","stop_id":"FI031UN","trip_id":"52_817173","time":"12:54:45","stop_name":"UNIVERSITA' FISCIANO DON MELILLO","stop_lon":"14.7945331436947","stop_lat":"40.7735290628463"},{"route_id":"027","stop_id":"FI007UN","trip_id":"52_817173","time":"12:55:00","stop_name":"FISCIANO UNIVERSITA","stop_lon":"14.7940717591478","stop_lat":"40.7736710217681"},{"route_id":"027","stop_id":"SA113ME","trip_id":"52_816062","time":"12:30:00","stop_name":"PARCO ARBOSTELLA","stop_lon":"14.8138288411393","stop_lat":"40.6524161935838"},{"route_id":"027","stop_id":"SA062ME","trip_id":"52_816062","time":"12:32:00","stop_name":"PARMENIDE  ARBOSTELLA","stop_lon":"14.8113278577366","stop_lat":"40.6547038900508"},{"route_id":"027","stop_id":"SA068ME","trip_id":"52_816062","time":"12:35:55","stop_name":"TRENTO","stop_lon":"14.8003667551266","stop_lat":"40.6593513960182"},{"route_id":"027","stop_id":"SA074PA","trip_id":"52_816062","time":"12:37:41","stop_name":"DELLA LIBERTA","stop_lon":"14.7969521160175","stop_lat":"40.662900180648"},{"route_id":"027","stop_id":"SA078PA","trip_id":"52_816062","time":"12:38:54","stop_name":"POSIDONIA 309","stop_lon":"14.7940586399325","stop_lat":"40.6649760096238"},{"route_id":"027","stop_id":"SA084TO","trip_id":"52_816062","time":"12:41:00","stop_name":"POSIDONIA  SANTELMO","stop_lon":"14.7885373404976","stop_lat":"40.6681933077779"},{"route_id":"027","stop_id":"SA092TO","trip_id":"52_816062","time":"12:43:56","stop_name":"POSIDONIA OROFINO","stop_lon":"14.7832078401966","stop_lat":"40.6710237873859"},{"route_id":"027","stop_id":"SA094TO","trip_id":"52_816062","time":"12:45:08","stop_name":"TORRIONE FORTE LA CARNALE","stop_lon":"14.7808333463748","stop_lat":"40.6719093388098"},{"route_id":"027","stop_id":"SA098TO","trip_id":"52_816062","time":"12:46:00","stop_name":"TORRIONE MOBILIO","stop_lon":"14.7789949020983","stop_lat":"40.6723720776974"},{"route_id":"027","stop_id":"SA625TO","trip_id":"52_816062","time":"12:48:37","stop_name":"L. GUERCIO 353","stop_lon":"14.7786790138318","stop_lat":"40.6745370452438"},{"route_id":"027","stop_id":"SA621TO","trip_id":"52_816062","time":"12:50:00","stop_name":"L. GUERCIO","stop_lon":"14.7771231503461","stop_lat":"40.6773672054766"},{"route_id":"027","stop_id":"SA415FR","trip_id":"52_816062","time":"12:53:00","stop_name":"IRNO","stop_lon":"14.7752325905405","stop_lat":"40.6825713135928"},{"route_id":"027","stop_id":"SA419FR","trip_id":"52_816062","time":"12:54:14","stop_name":"IRNO - BIVIO CIMITERO","stop_lon":"14.7773088553466","stop_lat":"40.6862755465933"},{"route_id":"027","stop_id":"FI025UN","trip_id":"52_816062","time":"13:22:23","stop_name":"PARCHEGGIO MULTIPIANO","stop_lon":"14.7927346613151","stop_lat":"40.7671488782853"},{"route_id":"027","stop_id":"FI027UN","trip_id":"52_816062","time":"13:24:20","stop_name":"RESIDENZE UNIVERSITARIE","stop_lon":"14.7953694191567","stop_lat":"40.7722752440895"},{"route_id":"027","stop_id":"FI031UN","trip_id":"52_816062","time":"13:24:45","stop_name":"UNIVERSITA' FISCIANO DON MELILLO","stop_lon":"14.7945331436947","stop_lat":"40.7735290628463"},{"route_id":"027","stop_id":"FI007UN","trip_id":"52_816062","time":"13:25:00","stop_name":"FISCIANO UNIVERSITA","stop_lon":"14.7940717591478","stop_lat":"40.7736710217681"},{"route_id":"027","stop_id":"SA113ME","trip_id":"52_817174","time":"13:00:00","stop_name":"PARCO ARBOSTELLA","stop_lon":"14.8138288411393","stop_lat":"40.6524161935838"},{"route_id":"027","stop_id":"SA062ME","trip_id":"52_817174","time":"13:02:00","stop_name":"PARMENIDE  ARBOSTELLA","stop_lon":"14.8113278577366","stop_lat":"40.6547038900508"},{"route_id":"027","stop_id":"SA068ME","trip_id":"52_817174","time":"13:05:58","stop_name":"TRENTO","stop_lon":"14.8003667551266","stop_lat":"40.6593513960182"},{"route_id":"027","stop_id":"SA074PA","trip_id":"52_817174","time":"13:07:40","stop_name":"DELLA LIBERTA","stop_lon":"14.7969521160175","stop_lat":"40.662900180648"},{"route_id":"027","stop_id":"SA078PA","trip_id":"52_817174","time":"13:08:56","stop_name":"POSIDONIA 309","stop_lon":"14.7940586399325","stop_lat":"40.6649760096238"},{"route_id":"027","stop_id":"SA084TO","trip_id":"52_817174","time":"13:11:00","stop_name":"POSIDONIA  SANTELMO","stop_lon":"14.7885373404976","stop_lat":"40.6681933077779"},{"route_id":"027","stop_id":"SA092TO","trip_id":"52_817174","time":"13:13:22","stop_name":"POSIDONIA OROFINO","stop_lon":"14.7832078401966","stop_lat":"40.6710237873859"},{"route_id":"027","stop_id":"SA094TO","trip_id":"52_817174","time":"13:14:19","stop_name":"TORRIONE FORTE LA CARNALE","stop_lon":"14.7808333463748","stop_lat":"40.6719093388098"},{"route_id":"027","stop_id":"SA098TO","trip_id":"52_817174","time":"13:15:00","stop_name":"TORRIONE MOBILIO","stop_lon":"14.7789949020983","stop_lat":"40.6723720776974"},{"route_id":"027","stop_id":"SA625TO","trip_id":"52_817174","time":"13:17:36","stop_name":"L. GUERCIO 353","stop_lon":"14.7786790138318","stop_lat":"40.6745370452438"},{"route_id":"027","stop_id":"SA621TO","trip_id":"52_817174","time":"13:19:00","stop_name":"L. GUERCIO","stop_lon":"14.7771231503461","stop_lat":"40.6773672054766"},{"route_id":"027","stop_id":"SA415FR","trip_id":"52_817174","time":"13:22:00","stop_name":"IRNO","stop_lon":"14.7752325905405","stop_lat":"40.6825713135928"},{"route_id":"027","stop_id":"SA419FR","trip_id":"52_817174","time":"13:22:50","stop_name":"IRNO - BIVIO CIMITERO","stop_lon":"14.7773088553466","stop_lat":"40.6862755465933"},{"route_id":"027","stop_id":"FI031LA","trip_id":"52_817174","time":"13:41:32","stop_name":"LANCUSI USCITA RACC. (SA-AV)","stop_lon":"14.7882311212704","stop_lat":"40.7563045612779"},{"route_id":"027","stop_id":"BA006OR","trip_id":"52_817174","time":"13:42:22","stop_name":"ALLENDE","stop_lon":"14.7848700707802","stop_lat":"40.7553255956627"},{"route_id":"027","stop_id":"FI013LA","trip_id":"52_817174","time":"13:42:35","stop_name":"ALLENDE NAPOLI","stop_lon":"14.7829975779059","stop_lat":"40.7545382107194"},{"route_id":"027","stop_id":"FI010LA","trip_id":"52_817174","time":"13:43:00","stop_name":"LANCUSI UNIVERSITA'","stop_lon":"14.7814574328085","stop_lat":"40.7548312888771"},{"route_id":"027","stop_id":"BA015SA","trip_id":"52_817174","time":"13:43:14","stop_name":"USCITA UNIVERSITA  LANCUSI","stop_lon":"14.7820006917372","stop_lat":"40.7540720146172"},{"route_id":"027","stop_id":"BA001OR","trip_id":"52_817174","time":"13:43:54","stop_name":"CAVALCAVIA HOTEL DEI PRINCIPATI","stop_lon":"14.7856940283181","stop_lat":"40.7547306748473"},{"route_id":"027","stop_id":"BA010OR","trip_id":"52_817174","time":"13:45:00","stop_name":"IKEA STORE","stop_lon":"14.7875014655307","stop_lat":"40.7533140722777"},{"route_id":"027","stop_id":"FI025UN","trip_id":"52_817174","time":"13:51:02","stop_name":"PARCHEGGIO MULTIPIANO","stop_lon":"14.7927346613151","stop_lat":"40.7671488782853"},{"route_id":"027","stop_id":"FI027UN","trip_id":"52_817174","time":"13:53:17","stop_name":"RESIDENZE UNIVERSITARIE","stop_lon":"14.7953694191567","stop_lat":"40.7722752440895"},{"route_id":"027","stop_id":"FI031UN","trip_id":"52_817174","time":"13:53:44","stop_name":"UNIVERSITA' FISCIANO DON MELILLO","stop_lon":"14.7945331436947","stop_lat":"40.7735290628463"},{"route_id":"027","stop_id":"FI007UN","trip_id":"52_817174","time":"13:54:00","stop_name":"FISCIANO UNIVERSITA","stop_lon":"14.7940717591478","stop_lat":"40.7736710217681"},{"route_id":"027","stop_id":"SA113ME","trip_id":"52_818064","time":"14:45:00","stop_name":"PARCO ARBOSTELLA","stop_lon":"14.8138288411393","stop_lat":"40.6524161935838"},{"route_id":"027","stop_id":"SA062ME","trip_id":"52_818064","time":"14:47:00","stop_name":"PARMENIDE  ARBOSTELLA","stop_lon":"14.8113278577366","stop_lat":"40.6547038900508"},{"route_id":"027","stop_id":"SA068ME","trip_id":"52_818064","time":"14:50:03","stop_name":"TRENTO","stop_lon":"14.8003667551266","stop_lat":"40.6593513960182"},{"route_id":"027","stop_id":"SA074PA","trip_id":"52_818064","time":"14:51:25","stop_name":"DELLA LIBERTA","stop_lon":"14.7969521160175","stop_lat":"40.662900180648"},{"route_id":"027","stop_id":"SA078PA","trip_id":"52_818064","time":"14:52:22","stop_name":"POSIDONIA 309","stop_lon":"14.7940586399325","stop_lat":"40.6649760096238"},{"route_id":"027","stop_id":"SA084TO","trip_id":"52_818064","time":"14:54:00","stop_name":"POSIDONIA  SANTELMO","stop_lon":"14.7885373404976","stop_lat":"40.6681933077779"},{"route_id":"027","stop_id":"SA092TO","trip_id":"52_818064","time":"14:56:21","stop_name":"POSIDONIA OROFINO","stop_lon":"14.7832078401966","stop_lat":"40.6710237873859"},{"route_id":"027","stop_id":"SA094TO","trip_id":"52_818064","time":"14:57:18","stop_name":"TORRIONE FORTE LA CARNALE","stop_lon":"14.7808333463748","stop_lat":"40.6719093388098"},{"route_id":"027","stop_id":"SA098TO","trip_id":"52_818064","time":"14:58:00","stop_name":"TORRIONE MOBILIO","stop_lon":"14.7789949020983","stop_lat":"40.6723720776974"},{"route_id":"027","stop_id":"SA625TO","trip_id":"52_818064","time":"14:59:57","stop_name":"L. GUERCIO 353","stop_lon":"14.7786790138318","stop_lat":"40.6745370452438"},{"route_id":"027","stop_id":"SA621TO","trip_id":"52_818064","time":"15:01:00","stop_name":"L. GUERCIO","stop_lon":"14.7771231503461","stop_lat":"40.6773672054766"},{"route_id":"027","stop_id":"SA415FR","trip_id":"52_818064","time":"15:03:00","stop_name":"IRNO","stop_lon":"14.7752325905405","stop_lat":"40.6825713135928"},{"route_id":"027","stop_id":"SA419FR","trip_id":"52_818064","time":"15:04:14","stop_name":"IRNO - BIVIO CIMITERO","stop_lon":"14.7773088553466","stop_lat":"40.6862755465933"},{"route_id":"027","stop_id":"FI025UN","trip_id":"52_818064","time":"15:32:23","stop_name":"PARCHEGGIO MULTIPIANO","stop_lon":"14.7927346613151","stop_lat":"40.7671488782853"},{"route_id":"027","stop_id":"FI027UN","trip_id":"52_818064","time":"15:34:20","stop_name":"RESIDENZE UNIVERSITARIE","stop_lon":"14.7953694191567","stop_lat":"40.7722752440895"},{"route_id":"027","stop_id":"FI031UN","trip_id":"52_818064","time":"15:34:45","stop_name":"UNIVERSITA' FISCIANO DON MELILLO","stop_lon":"14.7945331436947","stop_lat":"40.7735290628463"},{"route_id":"027","stop_id":"FI007UN","trip_id":"52_818064","time":"15:35:00","stop_name":"FISCIANO UNIVERSITA","stop_lon":"14.7940717591478","stop_lat":"40.7736710217681"},{"route_id":"027","stop_id":"SA113ME","trip_id":"52_818065","time":"15:25:00","stop_name":"PARCO ARBOSTELLA","stop_lon":"14.8138288411393","stop_lat":"40.6524161935838"},{"route_id":"027","stop_id":"SA062ME","trip_id":"52_818065","time":"15:27:00","stop_name":"PARMENIDE  ARBOSTELLA","stop_lon":"14.8113278577366","stop_lat":"40.6547038900508"},{"route_id":"027","stop_id":"SA068ME","trip_id":"52_818065","time":"15:30:03","stop_name":"TRENTO","stop_lon":"14.8003667551266","stop_lat":"40.6593513960182"},{"route_id":"027","stop_id":"SA074PA","trip_id":"52_818065","time":"15:31:25","stop_name":"DELLA LIBERTA","stop_lon":"14.7969521160175","stop_lat":"40.662900180648"},{"route_id":"027","stop_id":"SA078PA","trip_id":"52_818065","time":"15:32:22","stop_name":"POSIDONIA 309","stop_lon":"14.7940586399325","stop_lat":"40.6649760096238"},{"route_id":"027","stop_id":"SA084TO","trip_id":"52_818065","time":"15:34:00","stop_name":"POSIDONIA  SANTELMO","stop_lon":"14.7885373404976","stop_lat":"40.6681933077779"},{"route_id":"027","stop_id":"SA092TO","trip_id":"52_818065","time":"15:36:21","stop_name":"POSIDONIA OROFINO","stop_lon":"14.7832078401966","stop_lat":"40.6710237873859"},{"route_id":"027","stop_id":"SA094TO","trip_id":"52_818065","time":"15:37:18","stop_name":"TORRIONE FORTE LA CARNALE","stop_lon":"14.7808333463748","stop_lat":"40.6719093388098"},{"route_id":"027","stop_id":"SA098TO","trip_id":"52_818065","time":"15:38:00","stop_name":"TORRIONE MOBILIO","stop_lon":"14.7789949020983","stop_lat":"40.6723720776974"},{"route_id":"027","stop_id":"SA625TO","trip_id":"52_818065","time":"15:39:57","stop_name":"L. GUERCIO 353","stop_lon":"14.7786790138318","stop_lat":"40.6745370452438"},{"route_id":"027","stop_id":"SA621TO","trip_id":"52_818065","time":"15:41:00","stop_name":"L. GUERCIO","stop_lon":"14.7771231503461","stop_lat":"40.6773672054766"},{"route_id":"027","stop_id":"SA415FR","trip_id":"52_818065","time":"15:43:00","stop_name":"IRNO","stop_lon":"14.7752325905405","stop_lat":"40.6825713135928"},{"route_id":"027","stop_id":"SA419FR","trip_id":"52_818065","time":"15:44:14","stop_name":"IRNO - BIVIO CIMITERO","stop_lon":"14.7773088553466","stop_lat":"40.6862755465933"},{"route_id":"027","stop_id":"FI025UN","trip_id":"52_818065","time":"16:12:23","stop_name":"PARCHEGGIO MULTIPIANO","stop_lon":"14.7927346613151","stop_lat":"40.7671488782853"},{"route_id":"027","stop_id":"FI027UN","trip_id":"52_818065","time":"16:14:20","stop_name":"RESIDENZE UNIVERSITARIE","stop_lon":"14.7953694191567","stop_lat":"40.7722752440895"},{"route_id":"027","stop_id":"FI031UN","trip_id":"52_818065","time":"16:14:45","stop_name":"UNIVERSITA' FISCIANO DON MELILLO","stop_lon":"14.7945331436947","stop_lat":"40.7735290628463"},{"route_id":"027","stop_id":"FI007UN","trip_id":"52_818065","time":"16:15:00","stop_name":"FISCIANO UNIVERSITA","stop_lon":"14.7940717591478","stop_lat":"40.7736710217681"},{"route_id":"027","stop_id":"SA113ME","trip_id":"52_818066","time":"16:05:00","stop_name":"PARCO ARBOSTELLA","stop_lon":"14.8138288411393","stop_lat":"40.6524161935838"},{"route_id":"027","stop_id":"SA062ME","trip_id":"52_818066","time":"16:07:00","stop_name":"PARMENIDE  ARBOSTELLA","stop_lon":"14.8113278577366","stop_lat":"40.6547038900508"},{"route_id":"027","stop_id":"SA068ME","trip_id":"52_818066","time":"16:10:03","stop_name":"TRENTO","stop_lon":"14.8003667551266","stop_lat":"40.6593513960182"},{"route_id":"027","stop_id":"SA074PA","trip_id":"52_818066","time":"16:11:25","stop_name":"DELLA LIBERTA","stop_lon":"14.7969521160175","stop_lat":"40.662900180648"},{"route_id":"027","stop_id":"SA078PA","trip_id":"52_818066","time":"16:12:22","stop_name":"POSIDONIA 309","stop_lon":"14.7940586399325","stop_lat":"40.6649760096238"},{"route_id":"027","stop_id":"SA084TO","trip_id":"52_818066","time":"16:14:00","stop_name":"POSIDONIA  SANTELMO","stop_lon":"14.7885373404976","stop_lat":"40.6681933077779"},{"route_id":"027","stop_id":"SA092TO","trip_id":"52_818066","time":"16:16:21","stop_name":"POSIDONIA OROFINO","stop_lon":"14.7832078401966","stop_lat":"40.6710237873859"},{"route_id":"027","stop_id":"SA094TO","trip_id":"52_818066","time":"16:17:18","stop_name":"TORRIONE FORTE LA CARNALE","stop_lon":"14.7808333463748","stop_lat":"40.6719093388098"},{"route_id":"027","stop_id":"SA098TO","trip_id":"52_818066","time":"16:18:00","stop_name":"TORRIONE MOBILIO","stop_lon":"14.7789949020983","stop_lat":"40.6723720776974"},{"route_id":"027","stop_id":"SA625TO","trip_id":"52_818066","time":"16:19:57","stop_name":"L. GUERCIO 353","stop_lon":"14.7786790138318","stop_lat":"40.6745370452438"},{"route_id":"027","stop_id":"SA621TO","trip_id":"52_818066","time":"16:21:00","stop_name":"L. GUERCIO","stop_lon":"14.7771231503461","stop_lat":"40.6773672054766"},{"route_id":"027","stop_id":"SA415FR","trip_id":"52_818066","time":"16:24:00","stop_name":"IRNO","stop_lon":"14.7752325905405","stop_lat":"40.6825713135928"},{"route_id":"027","stop_id":"SA419FR","trip_id":"52_818066","time":"16:25:14","stop_name":"IRNO - BIVIO CIMITERO","stop_lon":"14.7773088553466","stop_lat":"40.6862755465933"},{"route_id":"027","stop_id":"FI025UN","trip_id":"52_818066","time":"16:53:23","stop_name":"PARCHEGGIO MULTIPIANO","stop_lon":"14.7927346613151","stop_lat":"40.7671488782853"},{"route_id":"027","stop_id":"FI027UN","trip_id":"52_818066","time":"16:55:20","stop_name":"RESIDENZE UNIVERSITARIE","stop_lon":"14.7953694191567","stop_lat":"40.7722752440895"},{"route_id":"027","stop_id":"FI031UN","trip_id":"52_818066","time":"16:55:45","stop_name":"UNIVERSITA' FISCIANO DON MELILLO","stop_lon":"14.7945331436947","stop_lat":"40.7735290628463"},{"route_id":"027","stop_id":"FI007UN","trip_id":"52_818066","time":"16:56:00","stop_name":"FISCIANO UNIVERSITA","stop_lon":"14.7940717591478","stop_lat":"40.7736710217681"},{"route_id":"027","stop_id":"SA113ME","trip_id":"52_818067","time":"16:45:00","stop_name":"PARCO ARBOSTELLA","stop_lon":"14.8138288411393","stop_lat":"40.6524161935838"},{"route_id":"027","stop_id":"SA062ME","trip_id":"52_818067","time":"16:47:00","stop_name":"PARMENIDE  ARBOSTELLA","stop_lon":"14.8113278577366","stop_lat":"40.6547038900508"},{"route_id":"027","stop_id":"SA068ME","trip_id":"52_818067","time":"16:51:24","stop_name":"TRENTO","stop_lon":"14.8003667551266","stop_lat":"40.6593513960182"},{"route_id":"027","stop_id":"SA074PA","trip_id":"52_818067","time":"16:53:18","stop_name":"DELLA LIBERTA","stop_lon":"14.7969521160175","stop_lat":"40.662900180648"},{"route_id":"027","stop_id":"SA078PA","trip_id":"52_818067","time":"16:54:42","stop_name":"POSIDONIA 309","stop_lon":"14.7940586399325","stop_lat":"40.6649760096238"},{"route_id":"027","stop_id":"SA084TO","trip_id":"52_818067","time":"16:57:00","stop_name":"POSIDONIA  SANTELMO","stop_lon":"14.7885373404976","stop_lat":"40.6681933077779"},{"route_id":"027","stop_id":"SA092TO","trip_id":"52_818067","time":"16:59:22","stop_name":"POSIDONIA OROFINO","stop_lon":"14.7832078401966","stop_lat":"40.6710237873859"},{"route_id":"027","stop_id":"SA094TO","trip_id":"52_818067","time":"17:00:19","stop_name":"TORRIONE FORTE LA CARNALE","stop_lon":"14.7808333463748","stop_lat":"40.6719093388098"},{"route_id":"027","stop_id":"SA098TO","trip_id":"52_818067","time":"17:01:00","stop_name":"TORRIONE MOBILIO","stop_lon":"14.7789949020983","stop_lat":"40.6723720776974"},{"route_id":"027","stop_id":"SA625TO","trip_id":"52_818067","time":"17:03:36","stop_name":"L. GUERCIO 353","stop_lon":"14.7786790138318","stop_lat":"40.6745370452438"},{"route_id":"027","stop_id":"SA621TO","trip_id":"52_818067","time":"17:05:00","stop_name":"L. GUERCIO","stop_lon":"14.7771231503461","stop_lat":"40.6773672054766"},{"route_id":"027","stop_id":"SA415FR","trip_id":"52_818067","time":"17:08:00","stop_name":"IRNO","stop_lon":"14.7752325905405","stop_lat":"40.6825713135928"},{"route_id":"027","stop_id":"SA419FR","trip_id":"52_818067","time":"17:08:50","stop_name":"IRNO - BIVIO CIMITERO","stop_lon":"14.7773088553466","stop_lat":"40.6862755465933"},{"route_id":"027","stop_id":"FI031LA","trip_id":"52_818067","time":"17:27:32","stop_name":"LANCUSI USCITA RACC. (SA-AV)","stop_lon":"14.7882311212704","stop_lat":"40.7563045612779"},{"route_id":"027","stop_id":"BA006OR","trip_id":"52_818067","time":"17:28:22","stop_name":"ALLENDE","stop_lon":"14.7848700707802","stop_lat":"40.7553255956627"},{"route_id":"027","stop_id":"FI013LA","trip_id":"52_818067","time":"17:28:35","stop_name":"ALLENDE NAPOLI","stop_lon":"14.7829975779059","stop_lat":"40.7545382107194"},{"route_id":"027","stop_id":"FI010LA","trip_id":"52_818067","time":"17:29:00","stop_name":"LANCUSI UNIVERSITA'","stop_lon":"14.7814574328085","stop_lat":"40.7548312888771"},{"route_id":"027","stop_id":"BA015SA","trip_id":"52_818067","time":"17:29:14","stop_name":"USCITA UNIVERSITA  LANCUSI","stop_lon":"14.7820006917372","stop_lat":"40.7540720146172"},{"route_id":"027","stop_id":"BA001OR","trip_id":"52_818067","time":"17:29:54","stop_name":"CAVALCAVIA HOTEL DEI PRINCIPATI","stop_lon":"14.7856940283181","stop_lat":"40.7547306748473"},{"route_id":"027","stop_id":"BA010OR","trip_id":"52_818067","time":"17:31:00","stop_name":"IKEA STORE","stop_lon":"14.7875014655307","stop_lat":"40.7533140722777"},{"route_id":"027","stop_id":"FI025UN","trip_id":"52_818067","time":"17:37:02","stop_name":"PARCHEGGIO MULTIPIANO","stop_lon":"14.7927346613151","stop_lat":"40.7671488782853"},{"route_id":"027","stop_id":"FI027UN","trip_id":"52_818067","time":"17:39:17","stop_name":"RESIDENZE UNIVERSITARIE","stop_lon":"14.7953694191567","stop_lat":"40.7722752440895"},{"route_id":"027","stop_id":"FI031UN","trip_id":"52_818067","time":"17:39:44","stop_name":"UNIVERSITA' FISCIANO DON MELILLO","stop_lon":"14.7945331436947","stop_lat":"40.7735290628463"},{"route_id":"027","stop_id":"FI007UN","trip_id":"52_818067","time":"17:40:00","stop_name":"FISCIANO UNIVERSITA","stop_lon":"14.7940717591478","stop_lat":"40.7736710217681"},{"route_id":"027","stop_id":"SA113ME","trip_id":"52_818068","time":"17:25:00","stop_name":"PARCO ARBOSTELLA","stop_lon":"14.8138288411393","stop_lat":"40.6524161935838"},{"route_id":"027","stop_id":"SA062ME","trip_id":"52_818068","time":"17:27:00","stop_name":"PARMENIDE  ARBOSTELLA","stop_lon":"14.8113278577366","stop_lat":"40.6547038900508"},{"route_id":"027","stop_id":"SA068ME","trip_id":"52_818068","time":"17:31:24","stop_name":"TRENTO","stop_lon":"14.8003667551266","stop_lat":"40.6593513960182"},{"route_id":"027","stop_id":"SA074PA","trip_id":"52_818068","time":"17:33:18","stop_name":"DELLA LIBERTA","stop_lon":"14.7969521160175","stop_lat":"40.662900180648"},{"route_id":"027","stop_id":"SA078PA","trip_id":"52_818068","time":"17:34:42","stop_name":"POSIDONIA 309","stop_lon":"14.7940586399325","stop_lat":"40.6649760096238"},{"route_id":"027","stop_id":"SA084TO","trip_id":"52_818068","time":"17:37:00","stop_name":"POSIDONIA  SANTELMO","stop_lon":"14.7885373404976","stop_lat":"40.6681933077779"},{"route_id":"027","stop_id":"SA092TO","trip_id":"52_818068","time":"17:39:22","stop_name":"POSIDONIA OROFINO","stop_lon":"14.7832078401966","stop_lat":"40.6710237873859"},{"route_id":"027","stop_id":"SA094TO","trip_id":"52_818068","time":"17:40:19","stop_name":"TORRIONE FORTE LA CARNALE","stop_lon":"14.7808333463748","stop_lat":"40.6719093388098"},{"route_id":"027","stop_id":"SA098TO","trip_id":"52_818068","time":"17:41:00","stop_name":"TORRIONE MOBILIO","stop_lon":"14.7789949020983","stop_lat":"40.6723720776974"},{"route_id":"027","stop_id":"SA625TO","trip_id":"52_818068","time":"17:43:36","stop_name":"L. GUERCIO 353","stop_lon":"14.7786790138318","stop_lat":"40.6745370452438"},{"route_id":"027","stop_id":"SA621TO","trip_id":"52_818068","time":"17:45:00","stop_name":"L. GUERCIO","stop_lon":"14.7771231503461","stop_lat":"40.6773672054766"},{"route_id":"027","stop_id":"SA415FR","trip_id":"52_818068","time":"17:48:00","stop_name":"IRNO","stop_lon":"14.7752325905405","stop_lat":"40.6825713135928"},{"route_id":"027","stop_id":"SA419FR","trip_id":"52_818068","time":"17:48:50","stop_name":"IRNO - BIVIO CIMITERO","stop_lon":"14.7773088553466","stop_lat":"40.6862755465933"},{"route_id":"027","stop_id":"FI031LA","trip_id":"52_818068","time":"18:07:32","stop_name":"LANCUSI USCITA RACC. (SA-AV)","stop_lon":"14.7882311212704","stop_lat":"40.7563045612779"},{"route_id":"027","stop_id":"BA006OR","trip_id":"52_818068","time":"18:08:22","stop_name":"ALLENDE","stop_lon":"14.7848700707802","stop_lat":"40.7553255956627"},{"route_id":"027","stop_id":"FI013LA","trip_id":"52_818068","time":"18:08:35","stop_name":"ALLENDE NAPOLI","stop_lon":"14.7829975779059","stop_lat":"40.7545382107194"},{"route_id":"027","stop_id":"FI010LA","trip_id":"52_818068","time":"18:09:00","stop_name":"LANCUSI UNIVERSITA'","stop_lon":"14.7814574328085","stop_lat":"40.7548312888771"},{"route_id":"027","stop_id":"BA015SA","trip_id":"52_818068","time":"18:09:14","stop_name":"USCITA UNIVERSITA  LANCUSI","stop_lon":"14.7820006917372","stop_lat":"40.7540720146172"},{"route_id":"027","stop_id":"BA001OR","trip_id":"52_818068","time":"18:09:54","stop_name":"CAVALCAVIA HOTEL DEI PRINCIPATI","stop_lon":"14.7856940283181","stop_lat":"40.7547306748473"},{"route_id":"027","stop_id":"BA010OR","trip_id":"52_818068","time":"18:11:00","stop_name":"IKEA STORE","stop_lon":"14.7875014655307","stop_lat":"40.7533140722777"},{"route_id":"027","stop_id":"FI025UN","trip_id":"52_818068","time":"18:17:02","stop_name":"PARCHEGGIO MULTIPIANO","stop_lon":"14.7927346613151","stop_lat":"40.7671488782853"},{"route_id":"027","stop_id":"FI027UN","trip_id":"52_818068","time":"18:19:17","stop_name":"RESIDENZE UNIVERSITARIE","stop_lon":"14.7953694191567","stop_lat":"40.7722752440895"},{"route_id":"027","stop_id":"FI031UN","trip_id":"52_818068","time":"18:19:44","stop_name":"UNIVERSITA' FISCIANO DON MELILLO","stop_lon":"14.7945331436947","stop_lat":"40.7735290628463"},{"route_id":"027","stop_id":"FI007UN","trip_id":"52_818068","time":"18:20:00","stop_name":"FISCIANO UNIVERSITA","stop_lon":"14.7940717591478","stop_lat":"40.7736710217681"},{"route_id":"027","stop_id":"SA113ME","trip_id":"52_817176","time":"18:05:00","stop_name":"PARCO ARBOSTELLA","stop_lon":"14.8138288411393","stop_lat":"40.6524161935838"},{"route_id":"027","stop_id":"SA062ME","trip_id":"52_817176","time":"18:07:00","stop_name":"PARMENIDE  ARBOSTELLA","stop_lon":"14.8113278577366","stop_lat":"40.6547038900508"},{"route_id":"027","stop_id":"SA068ME","trip_id":"52_817176","time":"18:11:22","stop_name":"TRENTO","stop_lon":"14.8003667551266","stop_lat":"40.6593513960182"},{"route_id":"027","stop_id":"SA074PA","trip_id":"52_817176","time":"18:13:19","stop_name":"DELLA LIBERTA","stop_lon":"14.7969521160175","stop_lat":"40.662900180648"},{"route_id":"027","stop_id":"SA078PA","trip_id":"52_817176","time":"18:14:40","stop_name":"POSIDONIA 309","stop_lon":"14.7940586399325","stop_lat":"40.6649760096238"},{"route_id":"027","stop_id":"SA084TO","trip_id":"52_817176","time":"18:17:00","stop_name":"POSIDONIA  SANTELMO","stop_lon":"14.7885373404976","stop_lat":"40.6681933077779"},{"route_id":"027","stop_id":"SA092TO","trip_id":"52_817176","time":"18:19:21","stop_name":"POSIDONIA OROFINO","stop_lon":"14.7832078401966","stop_lat":"40.6710237873859"},{"route_id":"027","stop_id":"SA094TO","trip_id":"52_817176","time":"18:20:18","stop_name":"TORRIONE FORTE LA CARNALE","stop_lon":"14.7808333463748","stop_lat":"40.6719093388098"},{"route_id":"027","stop_id":"SA098TO","trip_id":"52_817176","time":"18:21:00","stop_name":"TORRIONE MOBILIO","stop_lon":"14.7789949020983","stop_lat":"40.6723720776974"},{"route_id":"027","stop_id":"SA625TO","trip_id":"52_817176","time":"18:23:37","stop_name":"L. GUERCIO 353","stop_lon":"14.7786790138318","stop_lat":"40.6745370452438"},{"route_id":"027","stop_id":"SA621TO","trip_id":"52_817176","time":"18:25:00","stop_name":"L. GUERCIO","stop_lon":"14.7771231503461","stop_lat":"40.6773672054766"},{"route_id":"027","stop_id":"SA415FR","trip_id":"52_817176","time":"18:29:00","stop_name":"IRNO","stop_lon":"14.7752325905405","stop_lat":"40.6825713135928"},{"route_id":"027","stop_id":"SA419FR","trip_id":"52_817176","time":"18:30:14","stop_name":"IRNO - BIVIO CIMITERO","stop_lon":"14.7773088553466","stop_lat":"40.6862755465933"},{"route_id":"027","stop_id":"FI025UN","trip_id":"52_817176","time":"18:58:23","stop_name":"PARCHEGGIO MULTIPIANO","stop_lon":"14.7927346613151","stop_lat":"40.7671488782853"},{"route_id":"027","stop_id":"FI027UN","trip_id":"52_817176","time":"19:00:20","stop_name":"RESIDENZE UNIVERSITARIE","stop_lon":"14.7953694191567","stop_lat":"40.7722752440895"},{"route_id":"027","stop_id":"FI031UN","trip_id":"52_817176","time":"19:00:45","stop_name":"UNIVERSITA' FISCIANO DON MELILLO","stop_lon":"14.7945331436947","stop_lat":"40.7735290628463"},{"route_id":"027","stop_id":"FI007UN","trip_id":"52_817176","time":"19:01:00","stop_name":"FISCIANO UNIVERSITA","stop_lon":"14.7940717591478","stop_lat":"40.7736710217681"},{"route_id":"023","stop_id":"BA030CE","trip_id":"52_816575","time":"07:15:00","stop_name":"BARONISSI PARCO CILIEGIO","stop_lon":"14.7719971113031","stop_lat":"40.7489747525372"},{"route_id":"023","stop_id":"BA006BV","trip_id":"52_816575","time":"07:15:22","stop_name":"CONVENTO","stop_lon":"14.772027334768","stop_lat":"40.7499566637816"},{"route_id":"023","stop_id":"BA007CE","trip_id":"52_816575","time":"07:15:42","stop_name":"FERRERIA - PROFUMERIA","stop_lon":"14.7720298516146","stop_lat":"40.7507804795488"},{"route_id":"023","stop_id":"BA009FE","trip_id":"52_816575","time":"07:16:22","stop_name":"VIA FERRERIA-DF CIV. 137","stop_lon":"14.7730982984112","stop_lat":"40.752875667497"},{"route_id":"023","stop_id":"BA011FE","trip_id":"52_816575","time":"07:17:07","stop_name":"S.S.88 PROSS. TARGA BARONISSI","stop_lon":"14.7734272469445","stop_lat":"40.7554261168674"},{"route_id":"023","stop_id":"FI001LA","trip_id":"52_816575","time":"07:18:23","stop_name":"S.S.88-DF AUTORIVENDITA GALDIERI","stop_lon":"14.7747608281855","stop_lat":"40.7595549828566"},{"route_id":"023","stop_id":"FI003LA","trip_id":"52_816575","time":"07:19:10","stop_name":"S.S.88-STAZ.FFSS LANCUSI","stop_lon":"14.7756330378719","stop_lat":"40.7621177424202"},{"route_id":"023","stop_id":"FI009LA","trip_id":"52_816575","time":"07:20:00","stop_name":"BIVIO PENTA","stop_lon":"14.7761411781366","stop_lat":"40.7646243876456"},{"route_id":"023","stop_id":"FI017LA","trip_id":"52_816575","time":"07:20:18","stop_name":"LANCUSI - DEL CENTENARIO","stop_lon":"14.777717211809","stop_lat":"40.7645468097129"},{"route_id":"023","stop_id":"FI021LA","trip_id":"52_816575","time":"07:20:44","stop_name":"DEL CENTENARIO-DI MEGLIO","stop_lon":"14.780083908025","stop_lat":"40.7645243189993"},{"route_id":"023","stop_id":"FI027LA","trip_id":"52_816575","time":"07:21:13","stop_name":"DEL CENTENARIO-RIST.BELVEDERE","stop_lon":"14.7824664700466","stop_lat":"40.7641775109139"},{"route_id":"023","stop_id":"FI033LA","trip_id":"52_816575","time":"07:21:52","stop_name":"DEL CENTENARIO-ALIMENTARI DE CARO","stop_lon":"14.7856983830721","stop_lat":"40.763312004584"},{"route_id":"023","stop_id":"FI037LA","trip_id":"52_816575","time":"07:22:19","stop_name":"G.NASTRI-FARMACIA","stop_lon":"14.7880919923805","stop_lat":"40.763007890182"},{"route_id":"023","stop_id":"FI009PN","trip_id":"52_816575","time":"07:22:40","stop_name":"PENTA - MATTEOTTI-AREA F","stop_lon":"14.7899079947193","stop_lat":"40.7627085314535"},{"route_id":"023","stop_id":"FI011PN","trip_id":"52_816575","time":"07:23:05","stop_name":"PENTA- MATTEOTTI","stop_lon":"14.7921048546349","stop_lat":"40.7622269622863"},{"route_id":"023","stop_id":"FI013PN","trip_id":"52_816575","time":"07:23:24","stop_name":"PIAZZA V.EMANUELE-PENTA","stop_lon":"14.7935400066011","stop_lat":"40.7620917115979"},{"route_id":"023","stop_id":"FI015PN","trip_id":"52_816575","time":"07:24:31","stop_name":"PENTA-CAMPO SPORTIVO","stop_lon":"14.795407338317","stop_lat":"40.7657073654398"},{"route_id":"023","stop_id":"FI001PE","trip_id":"52_816575","time":"07:25:19","stop_name":"FISCIANO - ROMA-PUB 900","stop_lon":"14.7981503158013","stop_lat":"40.7680120135249"},{"route_id":"023","stop_id":"FI003CE","trip_id":"52_816575","time":"07:25:27","stop_name":"FISCIANO-HOTEL S.CATERINA","stop_lon":"14.7984114106542","stop_lat":"40.7684588308514"},{"route_id":"023","stop_id":"FI005CE","trip_id":"52_816575","time":"07:26:00","stop_name":"FISCIANO ROMA","stop_lon":"14.7975442852217","stop_lat":"40.7705422819996"},{"route_id":"023","stop_id":"FI009SV","trip_id":"52_816575","time":"07:27:39","stop_name":"FISCIANO-PROV. PER SETTEFICHI","stop_lon":"14.7994858807849","stop_lat":"40.7734521959564"},{"route_id":"023","stop_id":"FI011SE","trip_id":"52_816575","time":"07:29:48","stop_name":"FISCIANO-INCR.SETTEFICHI","stop_lon":"14.8063965276401","stop_lat":"40.7736509184434"},{"route_id":"023","stop_id":"CV001ST","trip_id":"52_816575","time":"07:30:49","stop_name":"SETTEFICHI-VIA BRODOLINI","stop_lon":"14.807570673579","stop_lat":"40.7739060151058"},{"route_id":"023","stop_id":"CV003ST","trip_id":"52_816575","time":"07:31:32","stop_name":"SETTEFICHI-VIA BRODOLINI","stop_lon":"14.8079743153394","stop_lat":"40.7746723916882"},{"route_id":"023","stop_id":"CV001PE","trip_id":"52_816575","time":"07:35:22","stop_name":"CALVANICO-DF CIMITERO","stop_lon":"14.8179325421371","stop_lat":"40.7747750119146"},{"route_id":"023","stop_id":"CV003PE","trip_id":"52_816575","time":"07:36:30","stop_name":"CALVANICO-VIA PROVINCIALE-MADONNINA","stop_lon":"14.8215295091965","stop_lat":"40.7756688476284"},{"route_id":"023","stop_id":"CV005CE","trip_id":"52_816575","time":"07:37:23","stop_name":"CALVANICO-PIAZZA SS.SALVATORE-CHIESA","stop_lon":"14.8240786113412","stop_lat":"40.7767204250811"},{"route_id":"023","stop_id":"CV007CC","trip_id":"52_816575","time":"07:39:07","stop_name":"CALVANICO-VIA PROVINCIALE-BV CASTIGLIONE","stop_lon":"14.8276299747051","stop_lat":"40.7792836856054"},{"route_id":"023","stop_id":"CV009CC","trip_id":"52_816575","time":"07:39:36","stop_name":"CALVANICO-PIAZZA S.ROCCO","stop_lon":"14.8287464751931","stop_lat":"40.7799060182872"},{"route_id":"023","stop_id":"CV011CC","trip_id":"52_816575","time":"07:39:50","stop_name":"CAPO CALVANICO-PIAZZA CONFORTI-INVERSIONE","stop_lon":"14.8294657410812","stop_lat":"40.7797012443021"},{"route_id":"023","stop_id":"CV002CC","trip_id":"52_816575","time":"07:40:01","stop_name":"CAPO CALVANICO-PIAZZA S.ROCCO","stop_lon":"14.8288674311678","stop_lat":"40.779875119167"},{"route_id":"023","stop_id":"CV004CC","trip_id":"52_816575","time":"07:40:33","stop_name":"CAPO CALVANICO-DF BV CASTIGLIONE","stop_lon":"14.827590247588","stop_lat":"40.7792944361928"},{"route_id":"023","stop_id":"CV006CE","trip_id":"52_816575","time":"07:42:05","stop_name":"CALVANICO-PIAZZA SS.SALVATORE-CHIESA","stop_lon":"14.823606678729","stop_lat":"40.7770575152576"},{"route_id":"023","stop_id":"CV013ME","trip_id":"52_816575","time":"07:43:50","stop_name":"CALVANICO-PIAZZA R.CONFORTI-COMUNE","stop_lon":"14.826294568591","stop_lat":"40.7744491901252"},{"route_id":"023","stop_id":"CV015ME","trip_id":"52_816575","time":"07:45:00","stop_name":"CALVANICO-CAPOLINEA","stop_lon":"14.8283579887123","stop_lat":"40.7749882706082"},{"route_id":"023","stop_id":"BA030CE","trip_id":"52_816577","time":"10:05:00","stop_name":"BARONISSI PARCO CILIEGIO","stop_lon":"14.7719971113031","stop_lat":"40.7489747525372"},{"route_id":"023","stop_id":"BA006BV","trip_id":"52_816577","time":"10:05:22","stop_name":"CONVENTO","stop_lon":"14.772027334768","stop_lat":"40.7499566637816"},{"route_id":"023","stop_id":"BA007CE","trip_id":"52_816577","time":"10:05:42","stop_name":"FERRERIA - PROFUMERIA","stop_lon":"14.7720298516146","stop_lat":"40.7507804795488"},{"route_id":"023","stop_id":"BA009FE","trip_id":"52_816577","time":"10:06:22","stop_name":"VIA FERRERIA-DF CIV. 137","stop_lon":"14.7730982984112","stop_lat":"40.752875667497"},{"route_id":"023","stop_id":"BA011FE","trip_id":"52_816577","time":"10:07:07","stop_name":"S.S.88 PROSS. TARGA BARONISSI","stop_lon":"14.7734272469445","stop_lat":"40.7554261168674"},{"route_id":"023","stop_id":"FI001LA","trip_id":"52_816577","time":"10:08:23","stop_name":"S.S.88-DF AUTORIVENDITA GALDIERI","stop_lon":"14.7747608281855","stop_lat":"40.7595549828566"},{"route_id":"023","stop_id":"FI003LA","trip_id":"52_816577","time":"10:09:10","stop_name":"S.S.88-STAZ.FFSS LANCUSI","stop_lon":"14.7756330378719","stop_lat":"40.7621177424202"},{"route_id":"023","stop_id":"FI009LA","trip_id":"52_816577","time":"10:10:00","stop_name":"BIVIO PENTA","stop_lon":"14.7761411781366","stop_lat":"40.7646243876456"},{"route_id":"023","stop_id":"FI017LA","trip_id":"52_816577","time":"10:10:23","stop_name":"LANCUSI - DEL CENTENARIO","stop_lon":"14.777717211809","stop_lat":"40.7645468097129"},{"route_id":"023","stop_id":"FI021LA","trip_id":"52_816577","time":"10:10:58","stop_name":"DEL CENTENARIO-DI MEGLIO","stop_lon":"14.780083908025","stop_lat":"40.7645243189993"},{"route_id":"023","stop_id":"FI027LA","trip_id":"52_816577","time":"10:11:37","stop_name":"DEL CENTENARIO-RIST.BELVEDERE","stop_lon":"14.7824664700466","stop_lat":"40.7641775109139"},{"route_id":"023","stop_id":"FI033LA","trip_id":"52_816577","time":"10:12:29","stop_name":"DEL CENTENARIO-ALIMENTARI DE CARO","stop_lon":"14.7856983830721","stop_lat":"40.763312004584"},{"route_id":"023","stop_id":"FI037LA","trip_id":"52_816577","time":"10:13:06","stop_name":"G.NASTRI-FARMACIA","stop_lon":"14.7880919923805","stop_lat":"40.763007890182"},{"route_id":"023","stop_id":"FI009PN","trip_id":"52_816577","time":"10:13:33","stop_name":"PENTA - MATTEOTTI-AREA F","stop_lon":"14.7899079947193","stop_lat":"40.7627085314535"},{"route_id":"023","stop_id":"FI011PN","trip_id":"52_816577","time":"10:14:07","stop_name":"PENTA- MATTEOTTI","stop_lon":"14.7921048546349","stop_lat":"40.7622269622863"},{"route_id":"023","stop_id":"FI013PN","trip_id":"52_816577","time":"10:14:32","stop_name":"PIAZZA V.EMANUELE-PENTA","stop_lon":"14.7935400066011","stop_lat":"40.7620917115979"},{"route_id":"023","stop_id":"FI015PN","trip_id":"52_816577","time":"10:16:01","stop_name":"PENTA-CAMPO SPORTIVO","stop_lon":"14.795407338317","stop_lat":"40.7657073654398"},{"route_id":"023","stop_id":"FI001PE","trip_id":"52_816577","time":"10:17:05","stop_name":"FISCIANO - ROMA-PUB 900","stop_lon":"14.7981503158013","stop_lat":"40.7680120135249"},{"route_id":"023","stop_id":"FI003CE","trip_id":"52_816577","time":"10:17:16","stop_name":"FISCIANO-HOTEL S.CATERINA","stop_lon":"14.7984114106542","stop_lat":"40.7684588308514"},{"route_id":"023","stop_id":"FI005CE","trip_id":"52_816577","time":"10:18:00","stop_name":"FISCIANO ROMA","stop_lon":"14.7975442852217","stop_lat":"40.7705422819996"},{"route_id":"023","stop_id":"FI009SV","trip_id":"52_816577","time":"10:19:28","stop_name":"FISCIANO-PROV. PER SETTEFICHI","stop_lon":"14.7994858807849","stop_lat":"40.7734521959564"},{"route_id":"023","stop_id":"FI011SE","trip_id":"52_816577","time":"10:21:24","stop_name":"FISCIANO-INCR.SETTEFICHI","stop_lon":"14.8063965276401","stop_lat":"40.7736509184434"},{"route_id":"023","stop_id":"CV001ST","trip_id":"52_816577","time":"10:22:19","stop_name":"SETTEFICHI-VIA BRODOLINI","stop_lon":"14.807570673579","stop_lat":"40.7739060151058"},{"route_id":"023","stop_id":"CV003ST","trip_id":"52_816577","time":"10:22:57","stop_name":"SETTEFICHI-VIA BRODOLINI","stop_lon":"14.8079743153394","stop_lat":"40.7746723916882"},{"route_id":"023","stop_id":"CV001PE","trip_id":"52_816577","time":"10:26:23","stop_name":"CALVANICO-DF CIMITERO","stop_lon":"14.8179325421371","stop_lat":"40.7747750119146"},{"route_id":"023","stop_id":"CV003PE","trip_id":"52_816577","time":"10:27:24","stop_name":"CALVANICO-VIA PROVINCIALE-MADONNINA","stop_lon":"14.8215295091965","stop_lat":"40.7756688476284"},{"route_id":"023","stop_id":"CV005CE","trip_id":"52_816577","time":"10:28:11","stop_name":"CALVANICO-PIAZZA SS.SALVATORE-CHIESA","stop_lon":"14.8240786113412","stop_lat":"40.7767204250811"},{"route_id":"023","stop_id":"CV007CC","trip_id":"52_816577","time":"10:29:44","stop_name":"CALVANICO-VIA PROVINCIALE-BV CASTIGLIONE","stop_lon":"14.8276299747051","stop_lat":"40.7792836856054"},{"route_id":"023","stop_id":"CV009CC","trip_id":"52_816577","time":"10:30:10","stop_name":"CALVANICO-PIAZZA S.ROCCO","stop_lon":"14.8287464751931","stop_lat":"40.7799060182872"},{"route_id":"023","stop_id":"CV011CC","trip_id":"52_816577","time":"10:30:22","stop_name":"CAPO CALVANICO-PIAZZA CONFORTI-INVERSIONE","stop_lon":"14.8294657410812","stop_lat":"40.7797012443021"},{"route_id":"023","stop_id":"CV002CC","trip_id":"52_816577","time":"10:30:33","stop_name":"CAPO CALVANICO-PIAZZA S.ROCCO","stop_lon":"14.8288674311678","stop_lat":"40.779875119167"},{"route_id":"023","stop_id":"CV004CC","trip_id":"52_816577","time":"10:31:01","stop_name":"CAPO CALVANICO-DF BV CASTIGLIONE","stop_lon":"14.827590247588","stop_lat":"40.7792944361928"},{"route_id":"023","stop_id":"CV006CE","trip_id":"52_816577","time":"10:32:23","stop_name":"CALVANICO-PIAZZA SS.SALVATORE-CHIESA","stop_lon":"14.823606678729","stop_lat":"40.7770575152576"},{"route_id":"023","stop_id":"CV013ME","trip_id":"52_816577","time":"10:33:58","stop_name":"CALVANICO-PIAZZA R.CONFORTI-COMUNE","stop_lon":"14.826294568591","stop_lat":"40.7744491901252"},{"route_id":"023","stop_id":"CV015ME","trip_id":"52_816577","time":"10:35:00","stop_name":"CALVANICO-CAPOLINEA","stop_lon":"14.8283579887123","stop_lat":"40.7749882706082"},{"route_id":"023","stop_id":"BA030CE","trip_id":"52_816578","time":"11:30:00","stop_name":"BARONISSI PARCO CILIEGIO","stop_lon":"14.7719971113031","stop_lat":"40.7489747525372"},{"route_id":"023","stop_id":"BA006BV","trip_id":"52_816578","time":"11:30:22","stop_name":"CONVENTO","stop_lon":"14.772027334768","stop_lat":"40.7499566637816"},{"route_id":"023","stop_id":"BA007CE","trip_id":"52_816578","time":"11:30:42","stop_name":"FERRERIA - PROFUMERIA","stop_lon":"14.7720298516146","stop_lat":"40.7507804795488"},{"route_id":"023","stop_id":"BA009FE","trip_id":"52_816578","time":"11:31:22","stop_name":"VIA FERRERIA-DF CIV. 137","stop_lon":"14.7730982984112","stop_lat":"40.752875667497"},{"route_id":"023","stop_id":"BA011FE","trip_id":"52_816578","time":"11:32:07","stop_name":"S.S.88 PROSS. TARGA BARONISSI","stop_lon":"14.7734272469445","stop_lat":"40.7554261168674"},{"route_id":"023","stop_id":"FI001LA","trip_id":"52_816578","time":"11:33:23","stop_name":"S.S.88-DF AUTORIVENDITA GALDIERI","stop_lon":"14.7747608281855","stop_lat":"40.7595549828566"},{"route_id":"023","stop_id":"FI003LA","trip_id":"52_816578","time":"11:34:10","stop_name":"S.S.88-STAZ.FFSS LANCUSI","stop_lon":"14.7756330378719","stop_lat":"40.7621177424202"},{"route_id":"023","stop_id":"FI009LA","trip_id":"52_816578","time":"11:35:00","stop_name":"BIVIO PENTA","stop_lon":"14.7761411781366","stop_lat":"40.7646243876456"},{"route_id":"023","stop_id":"FI017LA","trip_id":"52_816578","time":"11:35:23","stop_name":"LANCUSI - DEL CENTENARIO","stop_lon":"14.777717211809","stop_lat":"40.7645468097129"},{"route_id":"023","stop_id":"FI021LA","trip_id":"52_816578","time":"11:35:58","stop_name":"DEL CENTENARIO-DI MEGLIO","stop_lon":"14.780083908025","stop_lat":"40.7645243189993"},{"route_id":"023","stop_id":"FI027LA","trip_id":"52_816578","time":"11:36:37","stop_name":"DEL CENTENARIO-RIST.BELVEDERE","stop_lon":"14.7824664700466","stop_lat":"40.7641775109139"},{"route_id":"023","stop_id":"FI033LA","trip_id":"52_816578","time":"11:37:29","stop_name":"DEL CENTENARIO-ALIMENTARI DE CARO","stop_lon":"14.7856983830721","stop_lat":"40.763312004584"},{"route_id":"023","stop_id":"FI037LA","trip_id":"52_816578","time":"11:38:06","stop_name":"G.NASTRI-FARMACIA","stop_lon":"14.7880919923805","stop_lat":"40.763007890182"},{"route_id":"023","stop_id":"FI009PN","trip_id":"52_816578","time":"11:38:33","stop_name":"PENTA - MATTEOTTI-AREA F","stop_lon":"14.7899079947193","stop_lat":"40.7627085314535"},{"route_id":"023","stop_id":"FI011PN","trip_id":"52_816578","time":"11:39:07","stop_name":"PENTA- MATTEOTTI","stop_lon":"14.7921048546349","stop_lat":"40.7622269622863"},{"route_id":"023","stop_id":"FI013PN","trip_id":"52_816578","time":"11:39:32","stop_name":"PIAZZA V.EMANUELE-PENTA","stop_lon":"14.7935400066011","stop_lat":"40.7620917115979"},{"route_id":"023","stop_id":"FI015PN","trip_id":"52_816578","time":"11:41:01","stop_name":"PENTA-CAMPO SPORTIVO","stop_lon":"14.795407338317","stop_lat":"40.7657073654398"},{"route_id":"023","stop_id":"FI001PE","trip_id":"52_816578","time":"11:42:05","stop_name":"FISCIANO - ROMA-PUB 900","stop_lon":"14.7981503158013","stop_lat":"40.7680120135249"},{"route_id":"023","stop_id":"FI003CE","trip_id":"52_816578","time":"11:42:16","stop_name":"FISCIANO-HOTEL S.CATERINA","stop_lon":"14.7984114106542","stop_lat":"40.7684588308514"},{"route_id":"023","stop_id":"FI005CE","trip_id":"52_816578","time":"11:43:00","stop_name":"FISCIANO ROMA","stop_lon":"14.7975442852217","stop_lat":"40.7705422819996"},{"route_id":"023","stop_id":"FI009SV","trip_id":"52_816578","time":"11:44:28","stop_name":"FISCIANO-PROV. PER SETTEFICHI","stop_lon":"14.7994858807849","stop_lat":"40.7734521959564"},{"route_id":"023","stop_id":"FI011SE","trip_id":"52_816578","time":"11:46:24","stop_name":"FISCIANO-INCR.SETTEFICHI","stop_lon":"14.8063965276401","stop_lat":"40.7736509184434"},{"route_id":"023","stop_id":"CV001ST","trip_id":"52_816578","time":"11:47:19","stop_name":"SETTEFICHI-VIA BRODOLINI","stop_lon":"14.807570673579","stop_lat":"40.7739060151058"},{"route_id":"023","stop_id":"CV003ST","trip_id":"52_816578","time":"11:47:57","stop_name":"SETTEFICHI-VIA BRODOLINI","stop_lon":"14.8079743153394","stop_lat":"40.7746723916882"},{"route_id":"023","stop_id":"CV001PE","trip_id":"52_816578","time":"11:51:23","stop_name":"CALVANICO-DF CIMITERO","stop_lon":"14.8179325421371","stop_lat":"40.7747750119146"},{"route_id":"023","stop_id":"CV003PE","trip_id":"52_816578","time":"11:52:24","stop_name":"CALVANICO-VIA PROVINCIALE-MADONNINA","stop_lon":"14.8215295091965","stop_lat":"40.7756688476284"},{"route_id":"023","stop_id":"CV005CE","trip_id":"52_816578","time":"11:53:11","stop_name":"CALVANICO-PIAZZA SS.SALVATORE-CHIESA","stop_lon":"14.8240786113412","stop_lat":"40.7767204250811"},{"route_id":"023","stop_id":"CV007CC","trip_id":"52_816578","time":"11:54:44","stop_name":"CALVANICO-VIA PROVINCIALE-BV CASTIGLIONE","stop_lon":"14.8276299747051","stop_lat":"40.7792836856054"},{"route_id":"023","stop_id":"CV009CC","trip_id":"52_816578","time":"11:55:10","stop_name":"CALVANICO-PIAZZA S.ROCCO","stop_lon":"14.8287464751931","stop_lat":"40.7799060182872"},{"route_id":"023","stop_id":"CV011CC","trip_id":"52_816578","time":"11:55:22","stop_name":"CAPO CALVANICO-PIAZZA CONFORTI-INVERSIONE","stop_lon":"14.8294657410812","stop_lat":"40.7797012443021"},{"route_id":"023","stop_id":"CV002CC","trip_id":"52_816578","time":"11:55:33","stop_name":"CAPO CALVANICO-PIAZZA S.ROCCO","stop_lon":"14.8288674311678","stop_lat":"40.779875119167"},{"route_id":"023","stop_id":"CV004CC","trip_id":"52_816578","time":"11:56:01","stop_name":"CAPO CALVANICO-DF BV CASTIGLIONE","stop_lon":"14.827590247588","stop_lat":"40.7792944361928"},{"route_id":"023","stop_id":"CV006CE","trip_id":"52_816578","time":"11:57:23","stop_name":"CALVANICO-PIAZZA SS.SALVATORE-CHIESA","stop_lon":"14.823606678729","stop_lat":"40.7770575152576"},{"route_id":"023","stop_id":"CV013ME","trip_id":"52_816578","time":"11:58:58","stop_name":"CALVANICO-PIAZZA R.CONFORTI-COMUNE","stop_lon":"14.826294568591","stop_lat":"40.7744491901252"},{"route_id":"023","stop_id":"CV015ME","trip_id":"52_816578","time":"12:00:00","stop_name":"CALVANICO-CAPOLINEA","stop_lon":"14.8283579887123","stop_lat":"40.7749882706082"},{"route_id":"023","stop_id":"BA030CE","trip_id":"52_816579","time":"12:55:00","stop_name":"BARONISSI PARCO CILIEGIO","stop_lon":"14.7719971113031","stop_lat":"40.7489747525372"},{"route_id":"023","stop_id":"BA006BV","trip_id":"52_816579","time":"12:55:22","stop_name":"CONVENTO","stop_lon":"14.772027334768","stop_lat":"40.7499566637816"},{"route_id":"023","stop_id":"BA007CE","trip_id":"52_816579","time":"12:55:42","stop_name":"FERRERIA - PROFUMERIA","stop_lon":"14.7720298516146","stop_lat":"40.7507804795488"},{"route_id":"023","stop_id":"BA009FE","trip_id":"52_816579","time":"12:56:22","stop_name":"VIA FERRERIA-DF CIV. 137","stop_lon":"14.7730982984112","stop_lat":"40.752875667497"},{"route_id":"023","stop_id":"BA011FE","trip_id":"52_816579","time":"12:57:07","stop_name":"S.S.88 PROSS. TARGA BARONISSI","stop_lon":"14.7734272469445","stop_lat":"40.7554261168674"},{"route_id":"023","stop_id":"FI001LA","trip_id":"52_816579","time":"12:58:23","stop_name":"S.S.88-DF AUTORIVENDITA GALDIERI","stop_lon":"14.7747608281855","stop_lat":"40.7595549828566"},{"route_id":"023","stop_id":"FI003LA","trip_id":"52_816579","time":"12:59:10","stop_name":"S.S.88-STAZ.FFSS LANCUSI","stop_lon":"14.7756330378719","stop_lat":"40.7621177424202"},{"route_id":"023","stop_id":"FI009LA","trip_id":"52_816579","time":"13:00:00","stop_name":"BIVIO PENTA","stop_lon":"14.7761411781366","stop_lat":"40.7646243876456"},{"route_id":"023","stop_id":"FI017LA","trip_id":"52_816579","time":"13:00:23","stop_name":"LANCUSI - DEL CENTENARIO","stop_lon":"14.777717211809","stop_lat":"40.7645468097129"},{"route_id":"023","stop_id":"FI021LA","trip_id":"52_816579","time":"13:00:58","stop_name":"DEL CENTENARIO-DI MEGLIO","stop_lon":"14.780083908025","stop_lat":"40.7645243189993"},{"route_id":"023","stop_id":"FI027LA","trip_id":"52_816579","time":"13:01:37","stop_name":"DEL CENTENARIO-RIST.BELVEDERE","stop_lon":"14.7824664700466","stop_lat":"40.7641775109139"},{"route_id":"023","stop_id":"FI033LA","trip_id":"52_816579","time":"13:02:29","stop_name":"DEL CENTENARIO-ALIMENTARI DE CARO","stop_lon":"14.7856983830721","stop_lat":"40.763312004584"},{"route_id":"023","stop_id":"FI037LA","trip_id":"52_816579","time":"13:03:06","stop_name":"G.NASTRI-FARMACIA","stop_lon":"14.7880919923805","stop_lat":"40.763007890182"},{"route_id":"023","stop_id":"FI009PN","trip_id":"52_816579","time":"13:03:33","stop_name":"PENTA - MATTEOTTI-AREA F","stop_lon":"14.7899079947193","stop_lat":"40.7627085314535"},{"route_id":"023","stop_id":"FI011PN","trip_id":"52_816579","time":"13:04:07","stop_name":"PENTA- MATTEOTTI","stop_lon":"14.7921048546349","stop_lat":"40.7622269622863"},{"route_id":"023","stop_id":"FI013PN","trip_id":"52_816579","time":"13:04:32","stop_name":"PIAZZA V.EMANUELE-PENTA","stop_lon":"14.7935400066011","stop_lat":"40.7620917115979"},{"route_id":"023","stop_id":"FI015PN","trip_id":"52_816579","time":"13:06:01","stop_name":"PENTA-CAMPO SPORTIVO","stop_lon":"14.795407338317","stop_lat":"40.7657073654398"},{"route_id":"023","stop_id":"FI001PE","trip_id":"52_816579","time":"13:07:05","stop_name":"FISCIANO - ROMA-PUB 900","stop_lon":"14.7981503158013","stop_lat":"40.7680120135249"},{"route_id":"023","stop_id":"FI003CE","trip_id":"52_816579","time":"13:07:16","stop_name":"FISCIANO-HOTEL S.CATERINA","stop_lon":"14.7984114106542","stop_lat":"40.7684588308514"},{"route_id":"023","stop_id":"FI005CE","trip_id":"52_816579","time":"13:08:00","stop_name":"FISCIANO ROMA","stop_lon":"14.7975442852217","stop_lat":"40.7705422819996"},{"route_id":"023","stop_id":"FI009SV","trip_id":"52_816579","time":"13:09:28","stop_name":"FISCIANO-PROV. PER SETTEFICHI","stop_lon":"14.7994858807849","stop_lat":"40.7734521959564"},{"route_id":"023","stop_id":"FI011SE","trip_id":"52_816579","time":"13:11:24","stop_name":"FISCIANO-INCR.SETTEFICHI","stop_lon":"14.8063965276401","stop_lat":"40.7736509184434"},{"route_id":"023","stop_id":"CV001ST","trip_id":"52_816579","time":"13:12:19","stop_name":"SETTEFICHI-VIA BRODOLINI","stop_lon":"14.807570673579","stop_lat":"40.7739060151058"},{"route_id":"023","stop_id":"CV003ST","trip_id":"52_816579","time":"13:12:57","stop_name":"SETTEFICHI-VIA BRODOLINI","stop_lon":"14.8079743153394","stop_lat":"40.7746723916882"},{"route_id":"023","stop_id":"CV001PE","trip_id":"52_816579","time":"13:16:23","stop_name":"CALVANICO-DF CIMITERO","stop_lon":"14.8179325421371","stop_lat":"40.7747750119146"},{"route_id":"023","stop_id":"CV003PE","trip_id":"52_816579","time":"13:17:24","stop_name":"CALVANICO-VIA PROVINCIALE-MADONNINA","stop_lon":"14.8215295091965","stop_lat":"40.7756688476284"},{"route_id":"023","stop_id":"CV005CE","trip_id":"52_816579","time":"13:18:11","stop_name":"CALVANICO-PIAZZA SS.SALVATORE-CHIESA","stop_lon":"14.8240786113412","stop_lat":"40.7767204250811"},{"route_id":"023","stop_id":"CV007CC","trip_id":"52_816579","time":"13:19:44","stop_name":"CALVANICO-VIA PROVINCIALE-BV CASTIGLIONE","stop_lon":"14.8276299747051","stop_lat":"40.7792836856054"},{"route_id":"023","stop_id":"CV009CC","trip_id":"52_816579","time":"13:20:10","stop_name":"CALVANICO-PIAZZA S.ROCCO","stop_lon":"14.8287464751931","stop_lat":"40.7799060182872"},{"route_id":"023","stop_id":"CV011CC","trip_id":"52_816579","time":"13:20:22","stop_name":"CAPO CALVANICO-PIAZZA CONFORTI-INVERSIONE","stop_lon":"14.8294657410812","stop_lat":"40.7797012443021"},{"route_id":"023","stop_id":"CV002CC","trip_id":"52_816579","time":"13:20:33","stop_name":"CAPO CALVANICO-PIAZZA S.ROCCO","stop_lon":"14.8288674311678","stop_lat":"40.779875119167"},{"route_id":"023","stop_id":"CV004CC","trip_id":"52_816579","time":"13:21:01","stop_name":"CAPO CALVANICO-DF BV CASTIGLIONE","stop_lon":"14.827590247588","stop_lat":"40.7792944361928"},{"route_id":"023","stop_id":"CV006CE","trip_id":"52_816579","time":"13:22:23","stop_name":"CALVANICO-PIAZZA SS.SALVATORE-CHIESA","stop_lon":"14.823606678729","stop_lat":"40.7770575152576"},{"route_id":"023","stop_id":"CV013ME","trip_id":"52_816579","time":"13:23:58","stop_name":"CALVANICO-PIAZZA R.CONFORTI-COMUNE","stop_lon":"14.826294568591","stop_lat":"40.7744491901252"},{"route_id":"023","stop_id":"CV015ME","trip_id":"52_816579","time":"13:25:00","stop_name":"CALVANICO-CAPOLINEA","stop_lon":"14.8283579887123","stop_lat":"40.7749882706082"},{"route_id":"023","stop_id":"BA030CE","trip_id":"52_816580","time":"14:55:00","stop_name":"BARONISSI PARCO CILIEGIO","stop_lon":"14.7719971113031","stop_lat":"40.7489747525372"},{"route_id":"023","stop_id":"BA006BV","trip_id":"52_816580","time":"14:55:22","stop_name":"CONVENTO","stop_lon":"14.772027334768","stop_lat":"40.7499566637816"},{"route_id":"023","stop_id":"BA007CE","trip_id":"52_816580","time":"14:55:42","stop_name":"FERRERIA - PROFUMERIA","stop_lon":"14.7720298516146","stop_lat":"40.7507804795488"},{"route_id":"023","stop_id":"BA009FE","trip_id":"52_816580","time":"14:56:22","stop_name":"VIA FERRERIA-DF CIV. 137","stop_lon":"14.7730982984112","stop_lat":"40.752875667497"},{"route_id":"023","stop_id":"BA011FE","trip_id":"52_816580","time":"14:57:07","stop_name":"S.S.88 PROSS. TARGA BARONISSI","stop_lon":"14.7734272469445","stop_lat":"40.7554261168674"},{"route_id":"023","stop_id":"FI001LA","trip_id":"52_816580","time":"14:58:23","stop_name":"S.S.88-DF AUTORIVENDITA GALDIERI","stop_lon":"14.7747608281855","stop_lat":"40.7595549828566"},{"route_id":"023","stop_id":"FI003LA","trip_id":"52_816580","time":"14:59:10","stop_name":"S.S.88-STAZ.FFSS LANCUSI","stop_lon":"14.7756330378719","stop_lat":"40.7621177424202"},{"route_id":"023","stop_id":"FI009LA","trip_id":"52_816580","time":"15:00:00","stop_name":"BIVIO PENTA","stop_lon":"14.7761411781366","stop_lat":"40.7646243876456"},{"route_id":"023","stop_id":"FI017LA","trip_id":"52_816580","time":"15:00:23","stop_name":"LANCUSI - DEL CENTENARIO","stop_lon":"14.777717211809","stop_lat":"40.7645468097129"},{"route_id":"023","stop_id":"FI021LA","trip_id":"52_816580","time":"15:00:58","stop_name":"DEL CENTENARIO-DI MEGLIO","stop_lon":"14.780083908025","stop_lat":"40.7645243189993"},{"route_id":"023","stop_id":"FI027LA","trip_id":"52_816580","time":"15:01:37","stop_name":"DEL CENTENARIO-RIST.BELVEDERE","stop_lon":"14.7824664700466","stop_lat":"40.7641775109139"},{"route_id":"023","stop_id":"FI033LA","trip_id":"52_816580","time":"15:02:29","stop_name":"DEL CENTENARIO-ALIMENTARI DE CARO","stop_lon":"14.7856983830721","stop_lat":"40.763312004584"},{"route_id":"023","stop_id":"FI037LA","trip_id":"52_816580","time":"15:03:06","stop_name":"G.NASTRI-FARMACIA","stop_lon":"14.7880919923805","stop_lat":"40.763007890182"},{"route_id":"023","stop_id":"FI009PN","trip_id":"52_816580","time":"15:03:33","stop_name":"PENTA - MATTEOTTI-AREA F","stop_lon":"14.7899079947193","stop_lat":"40.7627085314535"},{"route_id":"023","stop_id":"FI011PN","trip_id":"52_816580","time":"15:04:07","stop_name":"PENTA- MATTEOTTI","stop_lon":"14.7921048546349","stop_lat":"40.7622269622863"},{"route_id":"023","stop_id":"FI013PN","trip_id":"52_816580","time":"15:04:32","stop_name":"PIAZZA V.EMANUELE-PENTA","stop_lon":"14.7935400066011","stop_lat":"40.7620917115979"},{"route_id":"023","stop_id":"FI015PN","trip_id":"52_816580","time":"15:06:01","stop_name":"PENTA-CAMPO SPORTIVO","stop_lon":"14.795407338317","stop_lat":"40.7657073654398"},{"route_id":"023","stop_id":"FI001PE","trip_id":"52_816580","time":"15:07:05","stop_name":"FISCIANO - ROMA-PUB 900","stop_lon":"14.7981503158013","stop_lat":"40.7680120135249"},{"route_id":"023","stop_id":"FI003CE","trip_id":"52_816580","time":"15:07:16","stop_name":"FISCIANO-HOTEL S.CATERINA","stop_lon":"14.7984114106542","stop_lat":"40.7684588308514"},{"route_id":"023","stop_id":"FI005CE","trip_id":"52_816580","time":"15:08:00","stop_name":"FISCIANO ROMA","stop_lon":"14.7975442852217","stop_lat":"40.7705422819996"},